stop_id,stop_name,stop_lat,stop_lon,day_type,hour_bucket,score_1_to_5,pct_on_time,avg_delay_minutes,delay_stddev_minutes,sample_size,last_updated
8220GA00062,Harcourt,53.33365091,-6.262691737,weekday,evening,4.0,100.0,-13.86,16.66,72,2026-07-03 02:53:36.731074
8250GA00323,Ballyogan,53.25506913,-6.184418067,weekday,evening,4.0,100.0,-38.35,14.44,50,2026-07-03 02:53:36.731074
8250GA00326,Carrickmines,53.25440536,-6.171571547,sunday,evening,4.0,100.0,-28.14,16.07,46,2026-07-03 02:53:36.731074
8220GA00075,Ranelagh,53.32613194,-6.256196436,weekday,evening,3.0,84.1,-14.02,21.25,63,2026-07-03 02:53:36.731074
8250GA00310,Central Park,53.27016803,-6.20389942,sunday,evening,,45.0,6.34,4.84,20,2026-07-03 02:53:36.731074
8250GA00336,Brides Glen,53.24187177,-6.142842986,weekday,evening,,100.0,0.05,0.66,21,2026-07-03 02:53:36.731074
8220GA00372,Suir Road,53.33659218,-6.307231258,weekday,pm_peak,,100.0,4.05,0.24,2,2026-07-03 02:53:36.731074
8230GA00353,Red Cow,53.31674596,-6.369780553,weekday,evening,4.0,97.9,-4.53,18.22,96,2026-07-03 02:53:36.731074
8230GA00347,Belgard,53.299145,-6.374808,weekday,evening,3.0,75.0,-8.11,16.48,108,2026-07-03 02:53:36.731074
8230GA00338,Cookstown,53.293311,-6.384038,weekday,evening,3.0,86.7,-15.04,20.42,30,2026-07-03 02:53:36.731074
8220GA00430,Mayor Square,53.34916764,-6.243269507,weekday,evening,,100.0,0.89,1.31,23,2026-07-03 02:53:36.731074
8220GA00404,Jervis,53.34768301,-6.265275464,weekday,pm_peak,,100.0,-7.3,0.24,2,2026-07-03 02:53:36.731074
8230GA00350,Kingswood,53.303586,-6.365409,sunday,evening,4.5,100.0,-6.55,4.03,37,2026-07-03 02:53:36.731074
8220GA00420,Busáras,53.350045,-6.251598,weekday,evening,4.0,100.0,-3.74,5.45,53,2026-07-03 02:53:36.731074
8220GA00402,Four Courts,53.346921,-6.273667,weekday,evening,3.0,76.9,-16.94,19.14,52,2026-07-03 02:53:36.731074
8220GA00409,Abbey St.,53.34859089,-6.258494272,weekday,evening,3.0,77.6,-19.02,17.36,49,2026-07-03 02:53:36.731074
8220GA00361,Bluebell,53.32931856,-6.333883625,weekday,evening,,76.2,3.28,2.44,21,2026-07-03 02:53:36.731074
8220GA00431,Mayor Square,53.34920357,-6.243268029,weekday,evening,,100.0,-14.12,9.82,27,2026-07-03 02:53:36.731074
8230GA00348,Belgard,53.29929146,-6.375066459,sunday,evening,,96.2,1.75,2.39,26,2026-07-03 02:53:36.731074
8230GA00345,Tallaght,53.28740296,-6.37460272,sunday,evening,,100.0,3.53,1.04,15,2026-07-03 02:53:36.731074
8220GA00399,Smithfield,53.3472,-6.278116,sunday,evening,,100.0,-26.9,2.17,27,2026-07-03 02:53:36.731074
8220GA00084,Beechwood,53.32093174,-6.254622178,sunday,evening,,7.4,6.85,1.22,27,2026-07-03 02:53:36.731074
8250GA00287,Dundrum,53.29242557,-6.245118882,sunday,evening,1.0,0.0,6.52,0.97,33,2026-07-03 02:53:36.731074
8250GA00314,Glencairn,53.26626785,-6.209924787,sunday,evening,,33.3,6.07,1.75,21,2026-07-03 02:53:36.731074
8220GA00084,Beechwood,53.32093174,-6.254622178,weekday,evening,,100.0,-0.56,0.86,29,2026-07-03 02:53:36.731074
8350DB004156,Seymour Road,53.2049673829576,-6.10361400629372,weekday,pm_peak,1.5,50.0,3.89,4.38,30,2026-07-03 02:53:36.731074
8350DB004244,Wendon Brook,53.1330304130234,-6.08109208786344,weekday,pm_peak,,100.0,2.02,,1,2026-07-03 02:53:36.731074
8350DB004279,Burnaby Park,53.1350997862619,-6.0667706913989,weekday,evening,,100.0,2.08,1.46,2,2026-07-03 02:53:36.731074
8350DB004280,Manor Avenue,53.1366898736811,-6.06560814223526,weekday,pm_peak,,100.0,3.42,,1,2026-07-03 02:53:36.731074
8350DB004294,Church Lane,53.1463915940886,-6.07799962874195,weekday,evening,,100.0,2.42,0.0,2,2026-07-03 02:53:36.731074
8350DB006138,Drake's Way,53.08077,-6.102346,weekday,pm_peak,,100.0,0.61,0.67,2,2026-07-03 02:53:36.731074
8350DB004228,Tennis Club,53.132601609423,-6.07180001208236,weekday,evening,,100.0,1.5,0.19,2,2026-07-03 02:53:36.731074
8350DB004228,Tennis Club,53.132601609423,-6.07180001208236,weekday,pm_peak,,100.0,0.95,,1,2026-07-03 02:53:36.731074
8350DB004236,Drummin Gate Lodge,53.1243222875763,-6.10420810897606,weekday,pm_peak,,100.0,-0.65,,1,2026-07-03 02:53:36.731074
8350DB004652,Coillte Offices,53.097125,-6.110004,weekday,evening,,100.0,0.88,1.27,3,2026-07-03 02:53:36.731074
8350DB004132,Bray Main Street,53.202301,-6.110004,weekday,evening,,58.8,7.09,8.13,17,2026-07-03 02:53:36.731074
8350DB004095,Enniskerry Village,53.1929253808271,-6.17044747596778,weekday,evening,,91.3,2.49,3.07,23,2026-07-03 02:53:36.731074
8350DB004300,Windgate North,53.1667975983875,-6.08760289056287,weekday,pm_peak,,100.0,3.65,0.0,2,2026-07-03 02:53:36.731074
8220DB004791,Killester Avenue,53.371612,-6.207659,weekday,evening,3.0,89.6,4.72,13.98,67,2026-07-03 02:53:36.731074
8220DB000255,Coolgreena Rd,53.385594,-6.231532,weekday,evening,,41.7,16.54,12.16,12,2026-07-03 02:53:36.731074
8220DB005141,Clontarf Cmtry,53.364744,-6.205213,weekday,evening,,0.0,6.82,,1,2026-07-03 02:53:36.731074
8350DB004254,Monteith Park,53.1053346861774,-6.06434215166238,weekday,evening,,0.0,9.14,0.25,2,2026-07-03 02:53:36.731074
8350DB004170,Methodist Church,53.203483770052,-6.10697299154272,weekday,pm_peak,,100.0,0.88,1.01,16,2026-07-03 02:53:36.731074
8350DB004136,O'Byrne Road,53.192253,-6.105013,weekday,pm_peak,,75.0,3.06,2.92,4,2026-07-03 02:53:36.731074
8350DB004253,Kilcoole,53.1091448198874,-6.06482826518744,weekday,evening,,33.3,4.87,5.22,3,2026-07-03 02:53:36.731074
8250DB003262,Cornelscourt SC,53.265726,-6.161359,weekday,pm_peak,,0.0,8.7,,1,2026-07-03 02:53:36.731074
8250DB003159,Cemetery,53.2824610519858,-6.16591951409938,weekday,evening,,0.0,8.81,1.43,3,2026-07-03 02:53:36.731074
8250DB007921,Newtownpark Avenue,53.28928,-6.176358,weekday,evening,4.5,100.0,0.07,0.62,55,2026-07-03 02:53:36.731074
8250DB003165,Carysfort Avenue,53.299346,-6.179735,weekday,pm_peak,,50.0,3.98,3.48,2,2026-07-03 02:53:36.731074
8250DB003124,South Park,53.2694440887987,-6.15938501282582,weekday,pm_peak,,100.0,0.97,,1,2026-07-03 02:53:36.731074
8250DB003151,Glen Estate,53.2646140592958,-6.15917272755766,weekday,evening,,100.0,0.7,,1,2026-07-03 02:53:36.731074
8250DB003255,Cornelscourt SC,53.2664828488635,-6.16320030317318,weekday,evening,,100.0,1.28,1.06,3,2026-07-03 02:53:36.731074
8250DB002039,Dun Laoghaire Stn,53.2948871708134,-6.13490268686881,weekday,evening,4.5,93.6,0.59,1.99,187,2026-07-03 02:53:36.731074
8250DB002035,Crofton Road,53.295772349365,-6.14266542172264,weekday,evening,3.0,83.7,2.94,7.26,43,2026-07-03 02:53:36.731074
8250DB004774,Leopardstown Valley,53.2581461851596,-6.19824268011943,weekday,evening,4.5,96.8,0.42,1.27,31,2026-07-03 02:53:36.731074
8350DB004278,Tennis Club,53.1327710607622,-6.07171769441289,weekday,pm_peak,,100.0,2.32,0.94,4,2026-07-03 02:53:36.731074
8350DB004246,Glenbrook Park,53.1242396248687,-6.07331005418816,weekday,evening,4.5,100.0,-0.47,2.6,31,2026-07-03 02:53:36.731074
8230DB007773,Liffey Avenue,53.353687,-6.413122,weekday,pm_peak,,100.0,3.38,,1,2026-07-03 02:53:36.731074
8230DB007752,Esker Park,53.352401,-6.430806,weekday,evening,,100.0,2.57,,1,2026-07-03 02:53:36.731074
8250DB003225,Ballybrack SC,53.255295,-6.133853,weekday,evening,4.0,90.7,2.01,6.47,54,2026-07-03 02:53:36.731074
8250DB003232,Pearse Villas,53.271604,-6.140445,weekday,evening,,88.9,2.15,6.26,27,2026-07-03 02:53:36.731074
8240DB006127,Marymount Care Ctr,53.374139,-6.440046,weekday,pm_peak,,0.0,13.57,0.0,2,2026-07-03 02:53:36.731074
8240DB004826,Westmanstown Sports,53.37954,-6.439368,weekday,pm_peak,,0.0,12.93,0.0,2,2026-07-03 02:53:36.731074
8240DB001897,Castlefield Woods,53.383112,-6.410345,weekday,pm_peak,,0.0,5.87,0.24,2,2026-07-03 02:53:36.731074
8240DB004493,Mountview Road,53.390582,-6.400323,weekday,evening,3.5,86.7,1.46,4.11,45,2026-07-03 02:53:36.731074
8230DB002202,Kennelsfort Road,53.354382,-6.373302,weekday,evening,,100.0,0.62,0.87,2,2026-07-03 02:53:36.731074
8220DB002689,Blackditch Drive,53.343106,-6.363744,weekday,pm_peak,,100.0,-0.16,1.3,14,2026-07-03 02:53:36.731074
8220DB004407,Victoria Quay,53.346488,-6.285165,weekday,pm_peak,2.0,68.6,4.26,5.54,35,2026-07-03 02:53:36.731074
8220DB008314,Croaghpatrick Rd,53.36447,-6.30892,weekday,pm_peak,,100.0,1.48,,1,2026-07-03 02:53:36.731074
8220DB001708,Mc Kee Park,53.35735,-6.29863,weekday,evening,,100.0,1.57,0.32,4,2026-07-03 02:53:36.731074
8220DB001528,St David's Terrace,53.356195,-6.294,weekday,pm_peak,,100.0,0.18,,1,2026-07-03 02:53:36.731074
8220DB000155,Ol Finglas Rd,53.37792,-6.27951,weekday,evening,,100.0,1.27,1.19,7,2026-07-03 02:53:36.731074
8220DB008310,Glasnevin Woods,53.375599,-6.28725,weekday,evening,,100.0,0.91,1.34,7,2026-07-03 02:53:36.731074
8220DB001707,Dunard Walk,53.358428,-6.30246,weekday,pm_peak,,8.3,7.19,1.7,12,2026-07-03 02:53:36.731074
8220DB008299,Lagan Road,53.375324,-6.299971,weekday,evening,,69.2,2.86,2.99,13,2026-07-03 02:53:36.731074
8220DB008305,Grace Park Rd,53.373883,-6.242673,weekday,evening,,0.0,6.1,,1,2026-07-03 02:53:36.731074
8220DB001649,Manor Street,53.35256,-6.28428,weekday,pm_peak,,15.4,13.45,4.59,13,2026-07-03 02:53:36.731074
8220DB007130,Cromcastle Grn,53.393073,-6.220696,weekday,evening,4.5,97.9,0.46,1.37,48,2026-07-03 02:53:36.731074
8240GD007847,Santry Villas,53.3978,-6.244921,weekday,pm_peak,,100.0,1.87,0.19,2,2026-07-03 02:53:36.731074
8220DB000107,Crannogue Road,53.4023798987989,-6.28049690990612,weekday,evening,,100.0,1.56,1.61,10,2026-07-03 02:53:36.731074
8240DB006230,Meakstown Ctr,53.401409,-6.296809,weekday,evening,4.5,98.7,0.0,0.77,75,2026-07-03 02:53:36.731074
8220DB004938,Gofton Hall,53.390862,-6.298357,weekday,evening,,100.0,-2.76,4.7,10,2026-07-03 02:53:36.731074
8220DB007112,Larch Hill,53.397549,-6.229171,weekday,evening,,100.0,-3.13,4.43,2,2026-07-03 02:53:36.731074
8240DB000973,Coolock Lane,53.398226,-6.242723,weekday,evening,,100.0,-4.03,3.71,7,2026-07-03 02:53:36.731074
8220GD007841,Brookville Crescent,53.389683,-6.19842,weekday,evening,,100.0,-1.67,0.46,3,2026-07-03 02:53:36.731074
8250DB003193,Newtownpark Avenue,53.279834,-6.183338,weekday,evening,,100.0,2.1,,1,2026-07-03 02:53:36.731074
8250DB003195,Meadow Close,53.284895,-6.177544,weekday,pm_peak,,100.0,0.65,0.0,2,2026-07-03 02:53:36.731074
8220DB007943,Highfield Road,53.312739,-6.270385,weekday,pm_peak,,100.0,-2.47,3.43,3,2026-07-03 02:53:36.731074
8220DB002185,Balfe Road,53.324259,-6.32749,weekday,pm_peak,,72.0,2.84,3.8,25,2026-07-03 02:53:36.731074
8220DB001119,Parkmore Drive,53.310936,-6.292414,weekday,evening,,100.0,0.28,0.99,26,2026-07-03 02:53:36.731074
8220DB002786,Kylemore Luas,53.327842,-6.343369,weekday,pm_peak,,100.0,-0.29,1.25,4,2026-07-03 02:53:36.731074
8220DB002785,Bluebell Avenue,53.330084,-6.344964,weekday,pm_peak,,100.0,-2.4,,1,2026-07-03 02:53:36.731074
8230DB007976,Liffey Valley W,53.352713,-6.396079,weekday,pm_peak,,57.7,0.1,7.1,26,2026-07-03 02:53:36.731074
8220DB002102,Balfe Road,53.324195,-6.326142,weekday,pm_peak,,20.0,8.49,6.45,15,2026-07-03 02:53:36.731074
8220DB002782,Bluebell Avenue,53.330677,-6.345617,weekday,evening,,100.0,-3.75,0.76,4,2026-07-03 02:53:36.731074
8220DB002652,Kylemore Avenue,53.3388459496904,-6.34810890913175,weekday,pm_peak,,100.0,-2.02,,1,2026-07-03 02:53:36.731074
8220DB002656,Ballyfermot,53.342624,-6.358716,weekday,evening,,75.0,-0.4,6.08,4,2026-07-03 02:53:36.731074
8220DB002101,Drimnagh Rd,53.324955,-6.318171,weekday,evening,,100.0,-2.36,0.5,8,2026-07-03 02:53:36.731074
8220DB007958,Drimnagh Road,53.32452,-6.32382,weekday,pm_peak,,100.0,-2.32,,1,2026-07-03 02:53:36.731074
8220DB002331,Saint Mary's Road,53.324572,-6.317795,weekday,pm_peak,,100.0,-0.04,1.17,13,2026-07-03 02:53:36.731074
8220DB001063,South Hill,53.308572,-6.258863,weekday,evening,,100.0,3.16,0.81,2,2026-07-03 02:53:36.731074
8220DB002414,Westbrook,53.314074,-6.310854,weekday,evening,4.5,100.0,0.0,0.34,61,2026-07-03 02:53:36.731074
8250DB4557,UCD Sports Centre,53.30782,-6.22925,weekday,evening,,100.0,1.12,,1,2026-07-03 02:53:36.731074
8220DB001062,Chuchtown Rd Lwr,53.30826,-6.255319,weekday,evening,,100.0,2.88,1.05,11,2026-07-03 02:53:36.731074
8250DB007951,UCD Newman,53.30508,-6.2227,weekday,evening,,100.0,0.56,0.96,3,2026-07-03 02:53:36.731074
8250DB003169,St Augustine's Sch,53.288573,-6.180568,weekday,evening,,0.0,6.35,0.0,2,2026-07-03 02:53:36.731074
8250DB000464,Southhill Avenue,53.298202,-6.198522,weekday,evening,,100.0,-8.83,2.77,3,2026-07-03 02:53:36.731074
8250DB000465,Clanfadda Wood,53.298901,-6.195972,weekday,evening,,100.0,-3.59,3.06,5,2026-07-03 02:53:36.731074
8250DB001307,Ely House,53.294203,-6.27763,weekday,evening,,100.0,1.07,,1,2026-07-03 02:53:36.731074
8250DB001310,Nutgrove Retail Pk,53.291717,-6.267319,weekday,evening,,100.0,1.07,,1,2026-07-03 02:53:36.731074
8230DB002616,St Maelruan's Park,53.284641,-6.360639,weekday,pm_peak,,18.8,10.23,4.87,16,2026-07-03 02:53:36.731074
8230DB001139,Old Bridge Road,53.294224,-6.306747,weekday,evening,,100.0,-2.89,4.88,4,2026-07-03 02:53:36.731074
8230DB001329,Rathfarnham Wood,53.294967,-6.281994,weekday,evening,,100.0,-4.55,3.81,6,2026-07-03 02:53:36.731074
8230DB001330,Grange Rd N,53.296191,-6.283986,weekday,evening,4.5,100.0,-0.48,1.84,61,2026-07-03 02:53:36.731074
8250GD10098,Taney Road,53.292293,-6.231317,weekday,evening,,100.0,-3.74,2.45,6,2026-07-03 02:53:36.731074
8250DB003085,Blackrock Station,53.30248,-6.178371,weekday,pm_peak,,100.0,-1.83,0.0,2,2026-07-03 02:53:36.731074
8250DB003164,Temple Hill,53.2956,-6.169887,weekday,pm_peak,,100.0,0.12,0.56,25,2026-07-03 02:53:36.731074
8230DB004887,St Colmcilles Way,53.279473,-6.318038,weekday,evening,,100.0,-0.26,0.64,6,2026-07-03 02:53:36.731074
8250DB005051,Pine Valley,53.2735579991915,-6.2597467856516,weekday,pm_peak,,100.0,1.23,0.68,23,2026-07-03 02:53:36.731074
8230DB007967,Citywest SC,53.282747,-6.421421,weekday,pm_peak,,100.0,2.4,,1,2026-07-03 02:53:36.731074
8230DB004348,Tallaght Luas,53.286672,-6.37505,weekday,evening,4.5,91.4,1.23,3.34,35,2026-07-03 02:53:36.731074
8250DB002866,Dundrum Luas,53.291518,-6.245741,weekday,evening,4.5,100.0,-0.01,0.04,74,2026-07-03 02:53:36.731074
8230DB004931,Castle Drive,53.289019,-6.42536,weekday,pm_peak,,7.7,10.62,3.05,13,2026-07-03 02:53:36.731074
8230DB007459,Citywest Rd N,53.290842,-6.427288,weekday,pm_peak,,14.3,5.72,2.73,14,2026-07-03 02:53:36.731074
8230DB005022,Lake Drive,53.29338,-6.422829,weekday,evening,,100.0,-0.54,1.13,24,2026-07-03 02:53:36.731074
8230DB006022,Kingswood Avenue,53.2951649041223,-6.41844305964385,weekday,evening,,100.0,0.4,,1,2026-07-03 02:53:36.731074
8250DB002976,Grange Hall,53.272057,-6.255459,weekday,pm_peak,,95.7,0.71,1.13,23,2026-07-03 02:53:36.731074
8230DB002980,Three Rock Rvrs,53.280017,-6.273071,weekday,evening,4.5,98.2,0.11,0.94,56,2026-07-03 02:53:36.731074
8230DB007878,Cappaghmore,53.331074,-6.399068,weekday,evening,,100.0,1.2,0.25,3,2026-07-03 02:53:36.731074
8310B133941,Ninemile Stone,53.497318,-6.385395,weekday,evening,,0.0,11.07,1.09,5,2026-07-03 02:53:36.731074
8230DB008029,Liffey Valley SC,53.354429,-6.392694,weekday,pm_peak,,7.7,9.56,4.14,26,2026-07-03 02:53:36.731074
8230DB002115,Oakfield,53.32563,-6.395248,weekday,pm_peak,,100.0,-2.89,1.13,3,2026-07-03 02:53:36.731074
8230DB008074,Nangor,53.318912,-6.431434,weekday,pm_peak,,96.6,0.27,1.49,29,2026-07-03 02:53:36.731074
8230DB008076,Green Isle Road,53.304156,-6.421397,weekday,pm_peak,,0.0,7.85,,1,2026-07-03 02:53:36.731074
8240DB001545,Westend Office Park,53.3927566349334,-6.38428863097674,weekday,pm_peak,4.5,92.0,1.56,1.46,50,2026-07-03 02:53:36.731074
8230DB004602,The Penny Hill,53.347626,-6.424477,weekday,evening,3.0,83.3,3.63,8.85,42,2026-07-03 02:53:36.731074
8230DB002349,Alderwood,53.285029,-6.378472,weekday,pm_peak,2.0,61.9,5.28,5.39,42,2026-07-03 02:53:36.731074
8230DB003457,Garters Lane,53.2900246105636,-6.43828275201961,weekday,pm_peak,,0.0,10.37,6.67,2,2026-07-03 02:53:36.731074
8230DB003457,Garters Lane,53.2900246105636,-6.43828275201961,weekday,evening,,33.3,11.82,6.21,3,2026-07-03 02:53:36.731074
8230GD10150,Mac Uilliam,53.285323,-6.417757,weekday,evening,,0.0,11.9,4.92,11,2026-07-03 02:53:36.731074
8260DB003923,Thornhill,53.352079,-6.546558,weekday,evening,3.5,80.0,1.59,3.09,50,2026-07-03 02:53:36.731074
8240DB006117,Swords Pavilions,53.45438,-6.215875,weekday,pm_peak,,93.3,1.8,0.95,15,2026-07-03 02:53:36.731074
8240DB007115,Nevinstown Lane,53.444976,-6.227139,weekday,pm_peak,,100.0,3.85,,1,2026-07-03 02:53:36.731074
8230DB003400,Newcastle M,53.295381,-6.490578,weekday,pm_peak,,100.0,-0.23,,1,2026-07-03 02:53:36.731074
8240DB007124,Ballycoolin Bus Pk,53.408434,-6.358154,weekday,pm_peak,,100.0,3.36,0.79,3,2026-07-03 02:53:36.731074
8240DB002290,Waterville Terrace,53.3918736208018,-6.37221829316682,weekday,evening,,100.0,3.77,0.54,7,2026-07-03 02:53:36.731074
8240DB002290,Waterville Terrace,53.3918736208018,-6.37221829316682,weekday,pm_peak,,100.0,3.75,,1,2026-07-03 02:53:36.731074
8220DB004365,Poppintree Park,53.402145,-6.283514,weekday,pm_peak,,0.0,6.7,,1,2026-07-03 02:53:36.731074
8220DB001646,DCU Collins Avenue,53.3871546494696,-6.25698053714182,weekday,pm_peak,,75.0,6.41,4.22,4,2026-07-03 02:53:36.731074
8240DB001877,St Ciaran's Church,53.393422,-6.418531,weekday,evening,,0.0,17.54,3.47,3,2026-07-03 02:53:36.731074
8240DB001841,Church Road,53.386121,-6.37552,weekday,pm_peak,,0.0,7.37,,1,2026-07-03 02:53:36.731074
8240DB003591,Robswall Crescent,53.4446336150103,-6.12756532644512,weekday,pm_peak,,100.0,2.0,,1,2026-07-03 02:53:36.731074
8240DB003078,Forrest Little,53.440265,-6.249644,weekday,evening,,100.0,4.18,0.49,2,2026-07-03 02:53:36.731074
8240DB005071,Alexion,53.410962,-6.376017,weekday,evening,,100.0,2.22,2.06,16,2026-07-03 02:53:36.731074
8240DB003806,Hampton Cove,53.602977,-6.167684,weekday,evening,,63.2,3.56,4.81,19,2026-07-03 02:53:36.731074
8240DB003678,Swords Village,53.455323,-6.222431,weekday,pm_peak,,52.4,9.59,5.56,21,2026-07-03 02:53:36.731074
8240DB003767,Rosewood,53.522035,-6.148662,weekday,evening,3.0,76.3,3.35,5.96,38,2026-07-03 02:53:36.731074
8240DB003837,Rush Main Street,53.522017,-6.092616,weekday,pm_peak,,0.0,16.85,,1,2026-07-03 02:53:36.731074
8240DB003855,Barrack Lane,53.523066,-6.167726,weekday,evening,2.0,71.7,4.59,6.77,46,2026-07-03 02:53:36.731074
8240DB003719,Newbridge House,53.481912,-6.177261,weekday,evening,,100.0,-5.42,0.0,4,2026-07-03 02:53:36.731074
8240DB003718,Newbridge Demesne,53.480457,-6.16209,weekday,evening,,100.0,0.8,,1,2026-07-03 02:53:36.731074
8240DB003736,Portrane,53.49337,-6.111733,weekday,pm_peak,,100.0,1.98,0.19,2,2026-07-03 02:53:36.731074
8240DB003752,Seatown West,53.462413,-6.218144,weekday,evening,,100.0,1.55,0.0,2,2026-07-03 02:53:36.731074
8250DB003247,Garden Centre,53.272645,-6.146127,weekday,evening,,100.0,-1.99,0.75,4,2026-07-03 02:53:36.731074
8350DB004416,Roseville Court,53.208344,-6.114739,weekday,pm_peak,,10.0,5.35,1.96,10,2026-07-03 02:53:36.731074
8250DB003140,Stonebridge Close,53.2297600975643,-6.12420860762254,weekday,pm_peak,,100.0,1.2,0.52,2,2026-07-03 02:53:36.731074
8350DB005167,Woodview Drive,53.188602,-6.109425,weekday,pm_peak,,100.0,0.88,0.16,2,2026-07-03 02:53:36.731074
8250DB003536,Ballybrack Village,53.253861,-6.124968,weekday,evening,,100.0,3.72,,1,2026-07-03 02:53:36.731074
8240DB004330,Swords Pavilions,53.454786,-6.218358,weekday,pm_peak,,80.0,-2.19,7.11,5,2026-07-03 02:53:36.731074
8240DB003691,Swords Village,53.455977,-6.221696,weekday,evening,4.5,92.5,0.72,2.62,40,2026-07-03 02:53:36.731074
8240DB003620,Biscayne Estate,53.446472,-6.134214,weekday,evening,,100.0,-0.37,,1,2026-07-03 02:53:36.731074
8240DB003623,The Old Golf Lnks,53.450657,-6.143743,weekday,pm_peak,,100.0,-1.52,0.0,2,2026-07-03 02:53:36.731074
8240DB003635,Hanlon's Lane,53.44964,-6.16053,weekday,evening,,100.0,1.9,2.83,5,2026-07-03 02:53:36.731074
8240DB006054,Malahide Rd Rnbt,53.454237,-6.215896,weekday,evening,4.5,97.4,0.23,1.58,39,2026-07-03 02:53:36.731074
8220DB000500,Ballybough Road,53.359036,-6.246289,weekday,pm_peak,,100.0,0.69,3.57,3,2026-07-03 02:53:36.731074
8220DB001378,Mayfield Rd,53.338828,-6.301376,weekday,pm_peak,,100.0,-7.2,,1,2026-07-03 02:53:36.731074
8220DB004514,St James's Hospital,53.34006,-6.29674,weekday,pm_peak,,100.0,0.55,5.19,4,2026-07-03 02:53:36.731074
8220DB001423,Drimnagh Rd,53.324999,-6.319445,weekday,evening,4.5,100.0,-0.66,2.63,45,2026-07-03 02:53:36.731074
8220DB001424,Crumlin Hospl,53.325663,-6.316747,weekday,evening,,100.0,1.58,1.43,6,2026-07-03 02:53:36.731074
8240DB000940,Coast Road,53.406555,-6.134728,weekday,evening,,100.0,2.72,0.19,2,2026-07-03 02:53:36.731074
8220DB001419,Brandon Road,53.3277177272247,-6.3229112430655,weekday,pm_peak,,52.0,12.76,13.04,25,2026-07-03 02:53:36.731074
8220DB007154,Walkinstown Grn,53.32088,-6.333972,weekday,pm_peak,,100.0,-13.3,,1,2026-07-03 02:53:36.731074
8220DB001939,Thomas Street,53.342998,-6.280665,weekday,pm_peak,1.0,58.3,6.62,5.48,36,2026-07-03 02:53:36.731074
8220DB001941,James's Street,53.343345,-6.289181,weekday,evening,4.5,91.7,0.83,3.3,120,2026-07-03 02:53:36.731074
8220DB001496,Marino Green,53.367148,-6.233814,weekday,pm_peak,,100.0,-1.33,,1,2026-07-03 02:53:36.731074
8220DB001515,Marino Park,53.3661143161413,-6.23319541821689,weekday,pm_peak,,100.0,-1.77,0.0,2,2026-07-03 02:53:36.731074
8220DB001502,Tara Street,53.347421,-6.254096,weekday,evening,,100.0,-3.52,0.16,2,2026-07-03 02:53:36.731074
8220DB001492,Marino Church,53.370257,-6.232558,weekday,pm_peak,,100.0,0.18,0.0,2,2026-07-03 02:53:36.731074
8440B353291,Ol Kilmeaden Rd,52.253377,-7.152771,weekday,evening,,90.0,2.03,2.02,10,2026-07-03 02:53:36.731074
8440B3525901,Waterford Bus Stn,52.263113,-7.11621,weekday,evening,2.5,67.6,1.96,3.13,37,2026-07-03 02:53:36.731074
8440B3526801,Mount Suir,52.261798,-7.143967,weekday,pm_peak,,100.0,-10.4,11.94,22,2026-07-03 02:53:36.731074
8440B352551,The Mall,52.259724,-7.10658,weekday,pm_peak,1.0,57.0,8.2,7.56,79,2026-07-03 02:53:36.731074
8440B352551,The Mall,52.259724,-7.10658,weekday,evening,3.5,86.8,4.02,4.72,38,2026-07-03 02:53:36.731074
8440B352761,Farran Park,52.242272,-7.093107,weekday,evening,,100.0,0.6,0.0,5,2026-07-03 02:53:36.731074
8440B353011,St Otteran's Hospl,52.248164,-7.102975,weekday,pm_peak,,0.0,7.8,1.58,23,2026-07-03 02:53:36.731074
8440B352101,Claremont,52.245048,-7.134756,weekday,pm_peak,,100.0,1.32,0.94,18,2026-07-03 02:53:36.731074
8440B352501,SETU Cork Road,52.245078,-7.137685,weekday,pm_peak,,100.0,3.58,0.0,12,2026-07-03 02:53:36.731074
8230GD10385,Rathcoole,53.28417,-6.46342,weekday,pm_peak,,47.8,6.66,3.68,23,2026-07-03 02:53:36.731074
8220DB004406,Concorde B Park,53.328089,-6.338511,weekday,pm_peak,,100.0,-1.36,1.43,23,2026-07-03 02:53:36.731074
8260B1042901,Castlewarden,53.2558469800427,-6.55398959540972,weekday,pm_peak,,0.0,9.07,0.0,11,2026-07-03 02:53:36.731074
8260B1056501,Brownstown,53.1390898973703,-6.83942035971295,weekday,evening,,100.0,1.97,0.0,2,2026-07-03 02:53:36.731074
8220DB001945,Inchicore Library,53.3405547841693,-6.30968740041896,weekday,pm_peak,1.0,33.3,6.04,1.55,36,2026-07-03 02:53:36.731074
8260B1037901,Naas Odeon Cinema,53.2311064768181,-6.64054781490404,weekday,pm_peak,1.5,47.8,6.44,3.78,46,2026-07-03 02:53:36.731074
8260DB007085,English Row,53.3379541587605,-6.54025127147072,weekday,evening,,0.0,7.37,1.46,7,2026-07-03 02:53:36.731074
8260B1326101,Coill Dubh,53.2918772768888,-6.81810834369819,weekday,evening,,0.0,13.57,,1,2026-07-03 02:53:36.731074
8260B1330101,Prosperous,53.288202,-6.751196,weekday,evening,,100.0,0.96,0.79,3,2026-07-03 02:53:36.731074
8260B1025901,Baybush,53.3203589720493,-6.62912679050891,weekday,pm_peak,,100.0,0.55,0.0,11,2026-07-03 02:53:36.731074
8260CO11089,Killeenlea,53.332938,-6.566068,weekday,pm_peak,,100.0,1.17,0.0,11,2026-07-03 02:53:36.731074
8220DB000316,Bachelors Walk,53.346893,-6.262228,weekday,evening,,92.6,-3.12,3.25,27,2026-07-03 02:53:36.731074
8260B1047901,Brooklands,53.2968358562131,-6.67910116695528,weekday,evening,,100.0,3.67,0.0,3,2026-07-03 02:53:36.731074
8260B1323901,Kennedys Bridge,53.2879865559314,-6.89506743267672,weekday,pm_peak,,100.0,1.33,0.0,11,2026-07-03 02:53:36.731074
8230B1339501,Holy Family NS,53.281284,-6.477533,weekday,pm_peak,4.5,100.0,0.84,0.81,33,2026-07-03 02:53:36.731074
8260B1038101,St Corban's,53.2256491831853,-6.65068033829214,weekday,evening,,0.0,8.08,0.0,10,2026-07-03 02:53:36.731074
8380IR0016,Carrigtwohill,51.916258,-8.263214,weekday,pm_peak,,100.0,0.0,0.0,11,2026-07-03 02:53:36.731074
8380IR0142,Midleton,51.921027,-8.175908,saturday,evening,,100.0,0.0,0.0,13,2026-07-03 02:53:36.731074
8220IR0028,Sandymount,53.32784,-6.220843,weekday,pm_peak,3.5,89.2,3.34,2.57,102,2026-07-03 02:53:36.731074
8370IR0126,Cork (Kent),51.901363,-8.458343,saturday,pm_peak,4.5,100.0,0.32,0.47,34,2026-07-03 02:53:36.731074
8220IR0034,Sydney Parade,53.320956,-6.211644,weekday,pm_peak,3.5,89.2,2.77,2.39,102,2026-07-03 02:53:36.731074
8250IR0022,Shankill,53.236522,-6.117228,weekday,evening,4.5,100.0,1.7,1.78,67,2026-07-03 02:53:36.731074
8220IR0135,Grand Canal Dock,53.339625,-6.237339,weekday,evening,4.5,100.0,0.76,1.33,110,2026-07-03 02:53:36.731074
8250IR0014,Dalkey,53.275854,-6.103358,weekday,evening,4.5,100.0,2.32,2.09,47,2026-07-03 02:53:36.731074
8220IR0025,Tara Street,53.347264,-6.254359,weekday,evening,4.0,100.0,-2.38,11.58,65,2026-07-03 02:53:36.731074
8220IR0139,Clongriffin,53.402514,-6.149029,weekday,evening,4.0,100.0,-5.87,16.92,30,2026-07-03 02:53:36.731074
8300IR0074,Drogheda (MacBride),53.711842,-6.335709,weekday,pm_peak,2.0,61.4,4.67,6.48,57,2026-07-03 02:53:36.731074
7040IR0045,Portadown,54.424993,-6.445312,weekday,evening,2.0,63.6,4.36,5.97,33,2026-07-03 02:53:36.731074
8430IR0100,Limerick Junction,52.503684,-8.197243,saturday,evening,4.5,100.0,1.44,2.31,39,2026-07-03 02:53:36.731074
8280IR0068,Portlaoise,53.036748,-7.301227,saturday,evening,4.5,100.0,-0.12,2.62,49,2026-07-03 02:53:36.731074
8430IR0100,Limerick Junction,52.503684,-8.197243,saturday,pm_peak,4.5,100.0,-0.4,0.81,55,2026-07-03 02:53:36.731074
8330IR0107,Athlone,53.426785,-7.935736,saturday,evening,4.5,100.0,-0.04,0.94,51,2026-07-03 02:53:36.731074
8260IR0059,Monasterevin,53.145481,-7.063798,saturday,evening,,100.0,1.62,0.77,13,2026-07-03 02:53:36.731074
8220IR0013,Ashtown,53.375258,-6.332386,weekday,pm_peak,4.5,100.0,2.79,1.33,56,2026-07-03 02:53:36.731074
8220IR0014,Pelletstown,53.375249,-6.313876,weekday,evening,,92.3,1.19,2.04,26,2026-07-03 02:53:36.731074
8220IR0027,Drumcondra,53.363012,-6.258578,weekday,evening,,100.0,1.5,1.5,22,2026-07-03 02:53:36.731074
8290IR0072,Longford,53.724079,-7.796346,weekday,evening,,45.5,2.45,5.1,22,2026-07-03 02:53:36.731074
8240IR0040,Coolmine,53.377506,-6.391524,weekday,pm_peak,3.5,75.6,3.98,1.59,45,2026-07-03 02:53:36.731074
8260IR0062,Leixlip(Confey),53.374065,-6.485464,weekday,evening,,100.0,0.33,2.23,12,2026-07-03 02:53:36.731074
8330IR0108,Mullingar,53.523035,-7.346082,weekday,evening,,0.0,6.0,0.0,12,2026-07-03 02:53:36.731074
8270IR0065,Thomastown,52.523049,-7.148997,saturday,evening,,100.0,4.75,0.5,4,2026-07-03 02:53:36.731074
8240DB001891,St Joseph's Centre,53.3866013551978,-6.42814995338162,weekday,pm_peak,,75.9,2.53,5.04,29,2026-07-03 02:53:36.731074
8240DB001844,Coolmine Fire Stn,53.385411,-6.396113,weekday,evening,,100.0,-0.02,0.0,29,2026-07-03 02:53:36.731074
8240DB001870,Scoil Mhuire NS,53.398057,-6.399412,weekday,evening,3.0,85.3,2.83,6.95,34,2026-07-03 02:53:36.731074
8240DB007162,Hansfield Road,53.391281,-6.433405,weekday,evening,4.5,93.6,0.87,3.33,109,2026-07-03 02:53:36.731074
8240DB001873,Sacred Heart Church,53.4017062047205,-6.41022298930775,weekday,evening,4.5,100.0,0.0,0.01,95,2026-07-03 02:53:36.731074
8240DB001890,Clonsilla Station,53.383537,-6.422024,weekday,evening,4.5,100.0,0.06,0.43,30,2026-07-03 02:53:36.731074
8240DB002171,Linnetfields,53.39793,-6.442139,weekday,evening,4.5,99.0,0.27,2.72,96,2026-07-03 02:53:36.731074
8220DB001913,Cabra Drive,53.358806,-6.291792,weekday,evening,4.5,100.0,-0.02,0.0,114,2026-07-03 02:53:36.731074
8220DB007339,Burlington Road,53.332408,-6.246541,weekday,pm_peak,1.0,33.3,12.07,6.57,33,2026-07-03 02:53:36.731074
8220DB001905,Skreen Road,53.363318,-6.303077,weekday,pm_peak,,48.1,5.71,8.05,27,2026-07-03 02:53:36.731074
8240DB007158,Delhurst,53.39192,-6.438223,weekday,pm_peak,,100.0,0.0,0.0,11,2026-07-03 02:53:36.731074
8240DB004489,Sheepmoor Grove,53.394416,-6.399368,weekday,pm_peak,,100.0,-0.02,0.0,12,2026-07-03 02:53:36.731074
8240DB001882,Millennium Park,53.3927725776906,-6.39881284842175,weekday,pm_peak,,100.0,-0.02,0.0,23,2026-07-03 02:53:36.731074
8240DB001884,Porters Road,53.385535,-6.395957,weekday,evening,,100.0,-0.02,0.0,12,2026-07-03 02:53:36.731074
8220DB001714,Stoneybatter,53.350638,-6.281889,weekday,evening,4.5,96.9,0.73,4.15,161,2026-07-03 02:53:36.731074
8220DB000751,Herbert Street,53.335321,-6.246572,weekday,evening,3.5,83.7,2.06,4.76,43,2026-07-03 02:53:36.731074
8240DB001865,Ashfield Gardens,53.4010446332512,-6.40644280565797,weekday,evening,,100.0,-0.02,0.0,25,2026-07-03 02:53:36.731074
8240DB006088,Shelerin Road,53.38364,-6.409468,weekday,evening,,100.0,-0.03,0.0,24,2026-07-03 02:53:36.731074
8240DB001861,Hartstown Comm Sch,53.39675,-6.416663,weekday,evening,,100.0,-0.02,0.0,24,2026-07-03 02:53:36.731074
8220DB004934,Offaly Road,53.362857,-6.282855,weekday,evening,4.5,100.0,-0.02,0.0,36,2026-07-03 02:53:36.731074
8220DB005144,Marian School,53.372709,-6.306205,weekday,evening,4.5,100.0,0.0,0.0,36,2026-07-03 02:53:36.731074
8240DB007161,Delhurst,53.392063,-6.438173,weekday,pm_peak,1.0,0.0,12.38,5.5,35,2026-07-03 02:53:36.731074
8220DB000780,Burlington Road,53.331063,-6.244344,weekday,pm_peak,,100.0,2.28,0.0,11,2026-07-03 02:53:36.731074
8220DB000781,Baggot Street,53.332626,-6.243664,weekday,pm_peak,2.5,67.6,2.53,3.74,34,2026-07-03 02:53:36.731074
8220DB000786,Leeson Street Lwr,53.33513,-6.25612,weekday,pm_peak,3.5,75.4,2.66,4.7,61,2026-07-03 02:53:36.731074
8220DB007588,Pearse Street,53.344985,-6.254075,weekday,pm_peak,,100.0,0.79,1.22,23,2026-07-03 02:53:36.731074
8240DB007011,Phibblestown Road,53.401596,-6.435252,weekday,evening,4.5,100.0,-0.03,0.0,73,2026-07-03 02:53:36.731074
8220DB000779,Waterloo Road,53.328689,-6.245447,weekday,evening,4.5,100.0,0.12,0.68,61,2026-07-03 02:53:36.731074
8220DB000781,Baggot Street,53.332626,-6.243664,weekday,evening,4.5,100.0,-0.02,0.0,56,2026-07-03 02:53:36.731074
8220DB000786,Leeson Street Lwr,53.33513,-6.25612,weekday,evening,4.5,99.3,0.05,0.85,149,2026-07-03 02:53:36.731074
8220DB000759,Donnybrook Stdm,53.320349,-6.233346,weekday,pm_peak,,50.0,9.83,7.42,24,2026-07-03 02:53:36.731074
8220DB000761,Teresian School,53.3161,-6.227487,weekday,pm_peak,,0.0,13.1,0.72,22,2026-07-03 02:53:36.731074
8240DB001898,Lohunda Crescent,53.387598,-6.409757,weekday,evening,4.5,100.0,0.0,0.14,47,2026-07-03 02:53:36.731074
8220DB000273,O'Connell Br,53.347247,-6.258819,weekday,pm_peak,1.5,57.9,3.05,3.66,38,2026-07-03 02:53:36.731074
8250DB000470,Blackrock Clinic,53.305626,-6.188981,weekday,pm_peak,,100.0,0.59,1.26,27,2026-07-03 02:53:36.731074
8220DB000477,Herbert Avenue,53.316863,-6.206952,weekday,pm_peak,,100.0,-0.02,0.0,22,2026-07-03 02:53:36.731074
8250DB003161,Deansgrange Park,53.287005,-6.16796,weekday,pm_peak,,100.0,-0.02,0.0,23,2026-07-03 02:53:36.731074
8250DB003162,Rowan Park,53.289749,-6.167557,weekday,pm_peak,4.5,100.0,0.27,0.4,34,2026-07-03 02:53:36.731074
8250DB006086,Grange Grove,53.286245,-6.165292,weekday,pm_peak,,100.0,0.0,0.0,23,2026-07-03 02:53:36.731074
8250DB007330,Bluepool Pitches,53.288516642231,-6.153525172372,weekday,evening,4.5,100.0,0.0,0.0,32,2026-07-03 02:53:36.731074
8250DB004705,St Helen's Road,53.310818,-6.200077,weekday,evening,4.5,100.0,0.0,0.0,62,2026-07-03 02:53:36.731074
8220DB000819,Blessington Street,53.356304,-6.265992,weekday,pm_peak,1.0,25.0,7.19,2.38,48,2026-07-03 02:53:36.731074
8240DB007678,The Green,53.424312,-6.378247,weekday,pm_peak,,0.0,8.14,1.68,22,2026-07-03 02:53:36.731074
8220DB006071,Parnell Street,53.353091,-6.260114,weekday,pm_peak,1.0,41.4,9.53,6.53,58,2026-07-03 02:53:36.731074
8220DB000015,Dorset Street Lwr,53.360267,-6.260978,weekday,pm_peak,4.5,90.3,2.35,4.19,113,2026-07-03 02:53:36.731074
8240DB007107,Ballentree Avenue,53.417047,-6.386031,weekday,evening,4.5,100.0,-0.28,0.53,68,2026-07-03 02:53:36.731074
8220DB001576,Cappagh Road,53.389317,-6.313048,weekday,evening,4.5,100.0,-0.07,0.37,85,2026-07-03 02:53:36.731074
8220DB000284,Rathbourne Avenue,53.377283,-6.328389,weekday,pm_peak,,100.0,0.0,0.0,23,2026-07-03 02:53:36.731074
8220DB000082,Doyle's Corner,53.360798,-6.271549,weekday,evening,4.5,100.0,0.19,0.85,52,2026-07-03 02:53:36.731074
8240DB007125,Ballycoolin Bus Pk,53.408242,-6.35789,weekday,pm_peak,,100.0,0.0,0.0,11,2026-07-03 02:53:36.731074
8240DB007097,Belgree Boulevard,53.420141,-6.38483,weekday,pm_peak,,100.0,-1.12,0.0,11,2026-07-03 02:53:36.731074
8220DB005147,Marian College,53.371823,-6.305834,weekday,evening,,100.0,-0.02,0.0,25,2026-07-03 02:53:36.731074
8220DB001575,Coláiste Íde,53.3870661425713,-6.31274625802596,weekday,evening,4.5,100.0,0.47,1.43,85,2026-07-03 02:53:36.731074
8240DB003864,Pine Grove,53.463999,-6.234133,weekday,evening,4.5,90.2,1.14,3.57,41,2026-07-03 02:53:36.731074
8240DB004912,Lioscian,53.46414,-6.239384,weekday,evening,4.5,100.0,-0.03,0.0,37,2026-07-03 02:53:36.731074
8240DB001638,Morton Stadium,53.401749,-6.242141,weekday,evening,4.5,100.0,-0.02,0.0,70,2026-07-03 02:53:36.731074
8220DB000051,Eccles Place,53.35781,-6.263272,weekday,evening,4.5,100.0,-0.05,0.39,167,2026-07-03 02:53:36.731074
8240DB003752,Seatown West,53.462413,-6.218144,weekday,pm_peak,,91.7,1.16,3.95,12,2026-07-03 02:53:36.731074
8240DB003697,Equestrian Centre,53.440686,-6.227558,weekday,evening,,100.0,0.0,0.0,25,2026-07-03 02:53:36.731074
8220DB000672,Donnycarney Rd,53.37354,-6.22109,weekday,pm_peak,1.0,39.3,7.58,6.9,56,2026-07-03 02:53:36.731074
8240DB003578,Streamstown Lane,53.437814,-6.177087,weekday,evening,4.5,100.0,-0.02,0.0,36,2026-07-03 02:53:36.731074
8240DB003579,Auburn House,53.44067,-6.176378,weekday,evening,4.5,100.0,0.0,0.0,36,2026-07-03 02:53:36.731074
8220DB001184,Talbot St East,53.35086,-6.25385,weekday,evening,4.5,93.7,0.65,1.76,63,2026-07-03 02:53:36.731074
8220DB000523,Marino Mart,53.364355,-6.231308,weekday,evening,4.5,100.0,0.02,0.43,366,2026-07-03 02:53:36.731074
8240DB003573,Kinsealy,53.426077,-6.176581,weekday,pm_peak,,100.0,0.0,0.0,11,2026-07-03 02:53:36.731074
8240DB003644,Mabestown,53.443012,-6.173763,weekday,evening,,100.0,0.0,0.0,27,2026-07-03 02:53:36.731074
8240DB003661,Abbeyville,53.429134,-6.17785,weekday,evening,4.5,100.0,-0.02,0.0,42,2026-07-03 02:53:36.731074
8220DB000665,Donnycarney Rd,53.37251,-6.22202,weekday,evening,4.5,100.0,-0.02,0.0,284,2026-07-03 02:53:36.731074
8220DB001197,Artane Cottages,53.379232,-6.211758,weekday,evening,4.5,100.0,0.03,0.29,112,2026-07-03 02:53:36.731074
8220DB000210,Crestfield Road,53.387594,-6.248318,weekday,evening,4.5,100.0,-0.01,0.01,39,2026-07-03 02:53:36.731074
8220DB000207,Larkhill Road,53.384822,-6.249875,weekday,evening,,100.0,0.36,0.56,22,2026-07-03 02:53:36.731074
8220DB001015,Harcourt Street,53.33273,-6.259966,weekday,evening,,100.0,-0.02,0.0,12,2026-07-03 02:53:36.731074
8220DB002812,Charlemont Street,53.331927,-6.262236,weekday,evening,,100.0,0.0,0.0,12,2026-07-03 02:53:36.731074
8220DB001410,Keeper Rd,53.331417,-6.299779,weekday,evening,,80.0,2.7,5.58,15,2026-07-03 02:53:36.731074
8250DB007325,Clayton Hotel,53.271933,-6.206524,weekday,evening,,100.0,-0.02,0.0,12,2026-07-03 02:53:36.731074
8220DB004525,Ashington Park,53.373448,-6.311391,weekday,pm_peak,,100.0,0.0,0.0,13,2026-07-03 02:53:36.731074
8220DB000271,O'Connell St Lwr,53.348596,-6.259485,weekday,evening,4.5,97.2,0.44,1.4,72,2026-07-03 02:53:36.731074
8220DB004526,Ashington Avenue,53.372119,-6.315276,weekday,pm_peak,,100.0,-0.02,0.0,13,2026-07-03 02:53:36.731074
8220DB007855,Usher's Quay,53.345988,-6.279809,weekday,evening,4.5,93.8,0.34,1.28,129,2026-07-03 02:53:36.731074
8220DB002256,Portside Ct,53.358349,-6.23565,weekday,evening,,100.0,-0.02,0.0,12,2026-07-03 02:53:36.731074
8220DB002262,Merchants Rd,53.353523,-6.226596,weekday,evening,,100.0,0.0,0.0,12,2026-07-03 02:53:36.731074
8220DB002315,Cork Street,53.337536,-6.285239,weekday,evening,4.5,100.0,0.0,0.0,128,2026-07-03 02:53:36.731074
8220DB000522,Fairview,53.363207,-6.2356,weekday,pm_peak,1.0,50.0,7.58,6.36,46,2026-07-03 02:53:36.731074
8240DB000686,Sutton Castle,53.3738558461024,-6.09434439160264,weekday,evening,,0.0,21.3,,1,2026-07-03 02:53:36.731074
8240DB000560,Main Street Howth,53.38596,-6.065103,weekday,pm_peak,,100.0,0.0,0.0,12,2026-07-03 02:53:36.731074
8240DB000565,Thormanby Hill,53.3752546889207,-6.05458608330621,weekday,pm_peak,,100.0,-0.02,0.0,12,2026-07-03 02:53:36.731074
8220DB007891,Wellington Quay,53.345428,-6.266584,weekday,pm_peak,1.0,23.1,9.95,5.9,52,2026-07-03 02:53:36.731074
8220DB002641,Inchicore Road,53.341966,-6.315414,weekday,evening,,100.0,-0.02,0.0,12,2026-07-03 02:53:36.731074
8220DB007512,John Rogersons Quay,53.34586,-6.237187,weekday,pm_peak,,0.0,17.13,0.0,11,2026-07-03 02:53:36.731074
8220DB006021,Cherry Orchard Ave,53.3382012527256,-6.3771014220017,weekday,evening,4.5,100.0,0.0,0.0,54,2026-07-03 02:53:36.731074
8220DB007856,Inns Quay,53.345623,-6.273184,weekday,evening,,75.0,2.11,3.78,20,2026-07-03 02:53:36.731074
8220DB004521,College Green,53.344301,-6.260171,weekday,pm_peak,2.5,64.7,5.19,2.64,34,2026-07-03 02:53:36.731074
8350DB004133,Blake's Garden Cen,53.211967,-6.484469,weekday,evening,,100.0,0.0,0.0,12,2026-07-03 02:53:36.731074
8230DB002590,Belfry Downs,53.2751454328557,-6.41549358352696,weekday,evening,,100.0,-0.02,0.0,12,2026-07-03 02:53:36.731074
8220DB001161,Lakelands Pk,53.306063,-6.290462,weekday,evening,,100.0,-0.02,0.0,12,2026-07-03 02:53:36.731074
8220DB001285,Camden Street Lwr,53.334378,-6.265125,weekday,evening,1.5,54.5,4.64,4.55,33,2026-07-03 02:53:36.731074
8220DB001080,Garville Avenue,53.314909,-6.271873,weekday,evening,4.5,100.0,-0.02,0.0,190,2026-07-03 02:53:36.731074
8230DB002540,Old Bawn SC,53.275532,-6.353775,weekday,evening,,100.0,0.01,0.05,23,2026-07-03 02:53:36.731074
8220DB001162,Rathdown Park,53.307732,-6.28777,weekday,evening,4.5,100.0,0.0,0.0,33,2026-07-03 02:53:36.731074
8230DB006011,M Collins Pk,53.32758,-6.396541,weekday,evening,,100.0,0.0,0.0,13,2026-07-03 02:53:36.731074
8230DB003378,Oldchurch Ave,53.319698,-6.414774,weekday,evening,,100.0,-0.02,,1,2026-07-03 02:53:36.731074
8230DB002156,Dunawley Dr,53.325402,-6.402403,weekday,pm_peak,4.5,100.0,-0.38,0.53,33,2026-07-03 02:53:36.731074
8230DB001974,Monastery Hth,53.319394,-6.380595,weekday,pm_peak,,100.0,0.0,0.0,12,2026-07-03 02:53:36.731074
8220DB001376,Bulfin Gardens,53.339508,-6.308753,weekday,evening,,100.0,-0.02,0.0,12,2026-07-03 02:53:36.731074
8230DB006186,Grants Row,53.293061,-6.472194,weekday,evening,,100.0,-0.02,0.0,13,2026-07-03 02:53:36.731074
8230DB003416,Kilcarbery Pk,53.31855,-6.44436,weekday,evening,4.5,100.0,0.0,0.0,50,2026-07-03 02:53:36.731074
8230DB001974,Monastery Hth,53.319394,-6.380595,weekday,evening,,100.0,0.08,0.41,26,2026-07-03 02:53:36.731074
8230DB006185,Greenoge B Park,53.296704,-6.470264,weekday,evening,,100.0,0.0,0.0,13,2026-07-03 02:53:36.731074
8230DB003404,Peamount Rd,53.300961,-6.501169,weekday,evening,,100.0,-0.02,0.08,15,2026-07-03 02:53:36.731074
8230DB003410,Hynestown,53.307862,-6.496065,weekday,evening,,100.0,0.0,0.0,13,2026-07-03 02:53:36.731074
8220DB001951,Bluebell Rd,53.333135,-6.329125,weekday,evening,4.5,100.0,0.0,0.0,50,2026-07-03 02:53:36.731074
8230DB003441,Forest Hills,53.281188,-6.472857,weekday,evening,,100.0,-0.02,0.0,11,2026-07-03 02:53:36.731074
8220DB001987,Oblate Ch,53.33629,-6.325939,weekday,evening,,100.0,0.5,0.89,18,2026-07-03 02:53:36.731074
8230DB003447,Coolamber Road,53.281917,-6.465273,weekday,evening,,100.0,0.16,0.58,13,2026-07-03 02:53:36.731074
8250DB003214,Churchview Road,53.264601,-6.134617,weekday,pm_peak,,84.6,3.68,0.7,13,2026-07-03 02:53:36.731074
8250DB003219,Oakton Park,53.25311,-6.130966,weekday,evening,4.5,97.4,0.2,1.23,39,2026-07-03 02:53:36.731074
8220DB000495,Pearse Stn,53.343591,-6.249747,weekday,pm_peak,4.5,100.0,0.64,1.21,44,2026-07-03 02:53:36.731074
8250DB003074,Drayton Close,53.294424,-6.159308,weekday,evening,4.5,100.0,-0.02,0.0,37,2026-07-03 02:53:36.731074
8220DB000479,Merrion Centre,53.319144,-6.213401,weekday,evening,4.5,100.0,-0.02,0.0,37,2026-07-03 02:53:36.731074
8220DB001299,Terenure South,53.308396,-6.283901,weekday,evening,4.5,98.7,0.15,1.44,78,2026-07-03 02:53:36.731074
8230DB002922,Fonthill Park,53.28913,-6.290509,weekday,evening,,100.0,-0.02,0.0,24,2026-07-03 02:53:36.731074
8220DB000303,Eden Quay,53.34806,-6.255992,weekday,evening,4.0,95.2,1.23,5.46,83,2026-07-03 02:53:36.731074
8230DB002949,Moyville Lawns,53.281673,-6.293251,weekday,evening,,96.3,0.26,2.29,27,2026-07-03 02:53:36.731074
8220DB007912,Ravensdale Park,53.31457,-6.300193,weekday,evening,,100.0,0.0,0.0,24,2026-07-03 02:53:36.731074
8220DB004524,Ashington Avenue,53.371676,-6.315744,weekday,pm_peak,,0.0,12.95,0.0,12,2026-07-03 02:53:36.731074
8220DB001392,Bangor Circle,53.322491,-6.30162,weekday,evening,4.5,100.0,0.0,0.0,36,2026-07-03 02:53:36.731074
8220DB002383,St Patricks Cathdrl,53.339458,-6.272653,weekday,evening,3.5,80.4,1.17,2.41,97,2026-07-03 02:53:36.731074
8220DB002097,Raphoe Road,53.327433,-6.309726,weekday,pm_peak,,100.0,4.01,0.46,13,2026-07-03 02:53:36.731074
8220DB002099,Crumlin Hospl,53.325562,-6.3166,weekday,evening,4.5,99.4,0.09,1.28,157,2026-07-03 02:53:36.731074
8220DB002096,Iveagh Gnds,53.328084,-6.306818,weekday,evening,4.5,98.0,0.15,1.07,147,2026-07-03 02:53:36.731074
8220DB007454,Herberton Road,53.335008,-6.298855,weekday,evening,4.5,100.0,-0.03,0.0,34,2026-07-03 02:53:36.731074
8220DB001385,Griffith College,53.3318,-6.278262,weekday,evening,4.5,100.0,-0.02,0.0,43,2026-07-03 02:53:36.731074
8220DB004434,Coombe Hospital,53.335868,-6.289256,weekday,pm_peak,,0.0,7.17,0.0,11,2026-07-03 02:53:36.731074
8220DB002186,Raphoe Road,53.326933,-6.312538,weekday,evening,3.5,81.8,1.45,3.17,44,2026-07-03 02:53:36.731074
8220DB002183,Walkinstown SC,53.321703980838,-6.33054760884826,weekday,evening,4.5,100.0,0.05,0.94,31,2026-07-03 02:53:36.731074
8230DB002566,Knockmore Gdns,53.277756,-6.394958,weekday,evening,,100.0,3.92,0.0,2,2026-07-03 02:53:36.731074
8230DB002427,Castletymon SC,53.29598,-6.340822,weekday,evening,,100.0,0.0,0.0,26,2026-07-03 02:53:36.731074
8230DB002430,Tymonville Gr,53.300921,-6.350413,weekday,evening,,100.0,0.0,0.0,26,2026-07-03 02:53:36.731074
8220DB000417,Merrion Road,53.3277,-6.22597,weekday,pm_peak,2.5,67.6,1.63,2.42,34,2026-07-03 02:53:36.731074
8250DB003215,Auburn Drive,53.262031,-6.137562,weekday,evening,3.5,88.6,0.95,2.25,44,2026-07-03 02:53:36.731074
8250DB003220,Wyattville Close,53.250723,-6.132943,weekday,evening,3.5,84.1,1.19,2.85,44,2026-07-03 02:53:36.731074
8250DB003222,Loughlinstown Park,53.246603,-6.128657,weekday,evening,,92.6,1.85,6.02,27,2026-07-03 02:53:36.731074
8250DB003237,Sarsfield Street,53.279142,-6.137958,weekday,evening,,100.0,-0.24,0.73,27,2026-07-03 02:53:36.731074
8220DB000336,D'Olier Street,53.346252,-6.257719,weekday,pm_peak,2.5,70.0,4.71,3.07,50,2026-07-03 02:53:36.731074
8220DB001279,College Green,53.34426,-6.261705,weekday,pm_peak,1.0,34.8,8.95,7.68,66,2026-07-03 02:53:36.731074
8220DB002246,Chapelizod Village,53.34827,-6.34363,weekday,pm_peak,,100.0,-0.02,0.0,11,2026-07-03 02:53:36.731074
8220DB001020,Rathmines,53.32508,-6.26508,weekday,evening,4.5,100.0,0.0,0.08,131,2026-07-03 02:53:36.731074
8220DB001023,Rathmines Close,53.317046,-6.264912,weekday,evening,4.5,100.0,0.0,0.0,39,2026-07-03 02:53:36.731074
8230DB002211,Kennelsfort Road,53.353959,-6.37458,weekday,evening,4.5,100.0,-0.02,0.0,30,2026-07-03 02:53:36.731074
8220DB000317,Westmoreland Street,53.346526,-6.259269,weekday,evening,3.5,88.0,1.51,3.92,92,2026-07-03 02:53:36.731074
8230DB002558,Killinarden Est,53.280249,-6.383932,weekday,pm_peak,,100.0,-2.32,0.0,11,2026-07-03 02:53:36.731074
8220DB000843,St Stephen's Grn E,53.337002,-6.256459,weekday,pm_peak,,50.0,4.92,3.75,24,2026-07-03 02:53:36.731074
8220DB002448,Cashel Road,53.3193092472153,-6.30414780696661,weekday,evening,4.5,100.0,-0.02,0.0,40,2026-07-03 02:53:36.731074
8220DB001076,Swan Shop Cntr,53.323131,-6.265491,weekday,evening,4.5,100.0,0.09,0.47,125,2026-07-03 02:53:36.731074
8230DB002320,Ashleaf,53.315887,-6.317011,weekday,evening,4.5,100.0,0.03,0.15,43,2026-07-03 02:53:36.731074
8220DB005026,Armagh Rd East,53.32043,-6.305244,weekday,evening,4.5,100.0,0.0,0.0,40,2026-07-03 02:53:36.731074
8220DB000358,Sean Moore Rd,53.339027,-6.21709,weekday,pm_peak,,47.8,3.05,6.21,23,2026-07-03 02:53:36.731074
8230DB005161,Marlfield,53.270891,-6.371901,weekday,pm_peak,,100.0,0.0,0.0,11,2026-07-03 02:53:36.731074
8230DB004613,Esker Cottages,53.3450849760289,-6.44450154015427,weekday,pm_peak,,0.0,9.02,,1,2026-07-03 02:53:36.731074
8220DB002721,South Circular Road,53.3432718551658,-6.31051108491761,weekday,pm_peak,1.0,47.5,8.29,6.3,61,2026-07-03 02:53:36.731074
8230DB007118,Stratton Grove,53.337339,-6.46402,weekday,evening,4.0,96.5,1.35,7.25,57,2026-07-03 02:53:36.731074
8220DB002721,South Circular Road,53.3432718551658,-6.31051108491761,weekday,evening,,0.0,10.68,0.0,2,2026-07-03 02:53:36.731074
8220DB000354,Ringsend Road,53.3422358280174,-6.2364356898267,weekday,evening,4.5,100.0,0.77,1.75,47,2026-07-03 02:53:36.731074
8220DB007859,Shaw Street,53.34495,-6.2539,weekday,evening,,100.0,2.72,1.67,6,2026-07-03 02:53:36.731074
8230DB007140,Rossberry Avenue,53.3392307652722,-6.43738627747236,weekday,evening,4.5,100.0,0.11,0.38,52,2026-07-03 02:53:36.731074
8220DB007603,St Patrick's Campus,53.371577,-6.253183,weekday,pm_peak,,100.0,0.0,0.0,22,2026-07-03 02:53:36.731074
8230DB007229,Takeda,53.33,-6.45096,weekday,pm_peak,,50.0,9.3,9.52,22,2026-07-03 02:53:36.731074
8230DB002236,Hermitage Bridge,53.358869,-6.410857,weekday,pm_peak,,8.3,9.5,2.26,12,2026-07-03 02:53:36.731074
8220DB001938,Cornmarket,53.342978,-6.276761,weekday,pm_peak,1.0,30.0,7.17,5.7,40,2026-07-03 02:53:36.731074
8230DB001964,Woodford Walk,53.32321,-6.378481,weekday,evening,4.5,100.0,0.0,0.0,51,2026-07-03 02:53:36.731074
8260DB003918,Old Greenfield,53.3764500204739,-6.58742161236596,weekday,pm_peak,2.0,71.1,-3.13,7.75,38,2026-07-03 02:53:36.731074
8260DB005113,Maynooth,53.3817579998309,-6.5901470450239,weekday,pm_peak,,0.0,12.57,0.0,12,2026-07-03 02:53:36.731074
8230DB003365,St Mary's Church,53.359657,-6.439193,weekday,pm_peak,,100.0,0.0,0.0,11,2026-07-03 02:53:36.731074
8260DB003962,Louisa Bridge Stn,53.36942,-6.5061,weekday,pm_peak,,100.0,0.0,0.0,12,2026-07-03 02:53:36.731074
8220DB008346,Mountjoy Sq South,53.356298,-6.256317,weekday,evening,4.5,94.9,1.11,1.96,59,2026-07-03 02:53:36.731074
8220DB001942,St James Hospital,53.34215,-6.29468,weekday,evening,3.5,80.9,2.05,4.25,47,2026-07-03 02:53:36.731074
8260DB007799,Hayfield,53.370596,-6.5902,weekday,evening,,100.0,0.22,0.46,26,2026-07-03 02:53:36.731074
8260DB007704,Carton Grove,53.3815397852005,-6.57781322569265,weekday,evening,,100.0,0.0,0.0,21,2026-07-03 02:53:36.731074
8260DB003925,Rockfield Manor,53.3725792635937,-6.58463416546998,weekday,pm_peak,1.0,0.0,17.36,8.6,34,2026-07-03 02:53:36.731074
8350DB008271,Richmond Way,53.190987,-6.124293,weekday,pm_peak,,0.0,12.66,2.94,22,2026-07-03 02:53:36.731074
8350DB005092,Cemetery,53.185829,-6.12906,weekday,pm_peak,,12.5,27.8,10.86,16,2026-07-03 02:53:36.731074
8250DB003131,Kilbogget Grove,53.255563,-6.14509,weekday,evening,,0.0,23.62,6.9,6,2026-07-03 02:53:36.731074
8250DB003136,Kentfield,53.2377373354805,-6.12735061667065,weekday,evening,4.5,97.8,0.49,3.09,89,2026-07-03 02:53:36.731074
8220DB000188,Doyle's Corner,53.360121,-6.272583,weekday,pm_peak,1.0,58.3,4.74,6.02,60,2026-07-03 02:53:36.731074
8250DB004127,St James's Church,53.21901,-6.11993,weekday,evening,4.5,100.0,0.0,0.0,62,2026-07-03 02:53:36.731074
8220DB000146,Na Fianna GAA Club,53.3750401276319,-6.26509558567468,weekday,evening,4.5,100.0,0.0,0.0,33,2026-07-03 02:53:36.731074
8220DB000094,Civic Centre,53.3960347624115,-6.26437695995448,weekday,pm_peak,,50.0,3.44,2.14,22,2026-07-03 02:53:36.731074
8220DB000094,Civic Centre,53.3960347624115,-6.26437695995448,weekday,evening,,81.5,4.25,4.15,27,2026-07-03 02:53:36.731074
8220DB000195,Broadstone,53.3550117778767,-6.27357097973096,weekday,evening,3.5,86.0,1.28,2.45,50,2026-07-03 02:53:36.731074
8220DB000198,Doyle's Corner,53.361625,-6.272838,weekday,pm_peak,1.0,18.2,9.06,4.15,88,2026-07-03 02:53:36.731074
8220DB008345,Saint Margaret's Rd,53.40634,-6.27058,weekday,evening,,0.0,8.04,0.13,9,2026-07-03 02:53:36.731074
8220DB000115,Ballymun Rd Ch,53.3879640919871,-6.26503610048148,weekday,evening,4.5,100.0,0.26,0.77,74,2026-07-03 02:53:36.731074
8220DB000150,Na Fianna GAA Club,53.3756588461862,-6.26499528302822,weekday,pm_peak,1.0,44.2,11.46,7.57,52,2026-07-03 02:53:36.731074
8250DB002040,Dun Laoghaire SC,53.292791187827,-6.13536904926552,weekday,pm_peak,3.0,85.4,-1.65,8.68,41,2026-07-03 02:53:36.731074
8250DB002046,Mounttown Rd Lower,53.2858693158491,-6.14568986154826,weekday,pm_peak,,100.0,2.27,0.0,11,2026-07-03 02:53:36.731074
8250DB004568,Kill Avenue,53.2827840372512,-6.14727826661728,weekday,pm_peak,,100.0,2.27,,1,2026-07-03 02:53:36.731074
8250DB004570,Holy Family Church,53.2808004680753,-6.15732224524739,weekday,evening,4.5,100.0,-0.02,0.0,63,2026-07-03 02:53:36.731074
8220DB002387,Long Lane,53.3365844247191,-6.27282879101049,weekday,pm_peak,1.0,0.0,13.17,2.68,34,2026-07-03 02:53:36.731074
8220DB007274,Operations Depot,53.405911,-6.269239,weekday,pm_peak,,100.0,-0.34,0.59,24,2026-07-03 02:53:36.731074
8220DB007698,IKEA Ballymun,53.40643,-6.27476,weekday,evening,4.5,100.0,0.55,1.18,51,2026-07-03 02:53:36.731074
8220DB007274,Operations Depot,53.405911,-6.269239,weekday,evening,4.5,100.0,0.22,0.62,59,2026-07-03 02:53:36.731074
8220DB007996,St Stephen's Grn S,53.337362,-6.262069,weekday,evening,3.0,88.3,2.13,6.49,94,2026-07-03 02:53:36.731074
8220DB000841,St Patrick's Road,53.362122,-6.260632,weekday,evening,4.5,100.0,0.02,0.49,40,2026-07-03 02:53:36.731074
8220DB001509,Slaney Road,53.3729258340421,-6.28422366048831,weekday,pm_peak,,50.0,6.05,3.61,2,2026-07-03 02:53:36.731074
8240DB006365,Lanesborough Ave,53.404383,-6.291651,weekday,evening,,100.0,-0.12,0.0,9,2026-07-03 02:53:36.731074
8220DB008040,Finglas,53.389557,-6.301509,weekday,evening,,100.0,-1.78,1.44,8,2026-07-03 02:53:36.731074
8220DB002442,Mount Argus Park,53.320452,-6.286029,weekday,pm_peak,,0.0,7.9,0.0,9,2026-07-03 02:53:36.731074
8230DB000946,Woodbrook Pk,53.293247,-6.310041,weekday,evening,,36.8,6.02,4.86,19,2026-07-03 02:53:36.731074
8230DB004880,Aylesbury Shop Cntr,53.276946,-6.366407,weekday,evening,,46.7,6.06,6.44,15,2026-07-03 02:53:36.731074
8230DB003415,Ballybane East,53.31916,-6.44896,weekday,pm_peak,,100.0,-0.02,0.0,16,2026-07-03 02:53:36.731074
8220DB001990,Myra Cottages,53.340472781795,-6.31469157313953,weekday,pm_peak,4.5,100.0,1.17,1.9,42,2026-07-03 02:53:36.731074
8230DB003418,Castlegrange Grn,53.320033,-6.427175,weekday,evening,4.5,100.0,0.0,0.0,74,2026-07-03 02:53:36.731074
8220DB001992,Inchicore Library,53.3406544981518,-6.30911277701976,weekday,evening,4.5,100.0,0.0,0.0,153,2026-07-03 02:53:36.731074
8220DB001532,Prospect Hill N,53.381744,-6.290559,weekday,pm_peak,,100.0,0.0,0.0,11,2026-07-03 02:53:36.731074
8220DB001520,Barry Road,53.39392,-6.311844,weekday,pm_peak,,100.0,1.9,0.0,12,2026-07-03 02:53:36.731074
8230DB004578,Saint Jude's GAA,53.297563,-6.326118,weekday,pm_peak,,100.0,0.0,0.0,11,2026-07-03 02:53:36.731074
8220DB007661,Barry Ave,53.3952,-6.31103,weekday,evening,4.5,100.0,-0.02,0.0,61,2026-07-03 02:53:36.731074
8220DB001559,Casement Rd,53.397341,-6.30652,weekday,evening,4.5,100.0,0.0,0.0,49,2026-07-03 02:53:36.731074
8220DB001610,Tolka Vly Pk,53.378808,-6.296403,weekday,pm_peak,,100.0,-0.02,0.0,11,2026-07-03 02:53:36.731074
8220DB001609,Cloonlara Road,53.380384,-6.297287,weekday,evening,4.5,100.0,0.0,0.0,54,2026-07-03 02:53:36.731074
8220DB002462,Saint James's Road,53.31388,-6.33009,weekday,evening,4.5,100.0,0.79,1.84,43,2026-07-03 02:53:36.731074
8220DB000987,Finglas Village,53.39022,-6.299375,weekday,evening,4.5,100.0,0.34,1.24,117,2026-07-03 02:53:36.731074
8230DB001966,Woodford Hill,53.320543,-6.377997,weekday,pm_peak,,50.0,5.93,1.89,22,2026-07-03 02:53:36.731074
8230DB007886,Red Cow Luas,53.316654,-6.370925,weekday,pm_peak,,96.4,0.44,1.49,28,2026-07-03 02:53:36.731074
8220DB002661,Cherry Orchard Drive,53.3354860616875,-6.36519177724852,weekday,evening,4.5,98.4,0.29,2.31,62,2026-07-03 02:53:36.731074
8230DB006149,Riverview BP,53.328293,-6.37485,weekday,evening,4.5,93.8,1.2,4.72,65,2026-07-03 02:53:36.731074
8220DB007842,New Wapping Street,53.347654,-6.235394,weekday,evening,4.5,100.0,0.0,0.14,178,2026-07-03 02:53:36.731074
8220DB000407,Custom House,53.348335,-6.253893,weekday,pm_peak,1.0,32.4,3.91,4.01,34,2026-07-03 02:53:36.731074
8220DB002498,IFSC,53.34828,-6.25027,weekday,pm_peak,2.5,65.7,4.23,2.0,35,2026-07-03 02:53:36.731074
8220DB007867,Park West Road,53.331325,-6.373113,weekday,evening,4.5,100.0,-0.02,0.0,39,2026-07-03 02:53:36.731074
8230DB002681,Fonthill Road,53.3417450847511,-6.40797917237562,weekday,pm_peak,,47.8,6.54,2.8,23,2026-07-03 02:53:36.731074
8230DB002119,St Peter's JNS,53.337048,-6.40018,weekday,pm_peak,,100.0,-0.21,0.68,12,2026-07-03 02:53:36.731074
8230DB07755,Clayton Hotel,53.353546,-6.40123,weekday,pm_peak,,100.0,2.37,0.42,12,2026-07-03 02:53:36.731074
8220DB000709,St Brigid's Church,53.375038,-6.197039,weekday,evening,4.5,100.0,0.0,0.0,96,2026-07-03 02:53:36.731074
8240DB005156,Industrial Estate,53.397436692826,-6.14600003770232,weekday,evening,4.5,100.0,0.0,0.0,49,2026-07-03 02:53:36.731074
8240DB000938,Baldoyle Estury,53.401543,-6.130361,weekday,evening,4.5,100.0,0.06,0.39,50,2026-07-03 02:53:36.731074
8220DB000607,The Demesne,53.372516,-6.20203,weekday,pm_peak,4.5,100.0,1.33,1.42,45,2026-07-03 02:53:36.731074
8220DB007591,Abbey St Lower,53.34889,-6.25683,weekday,pm_peak,1.5,52.7,4.33,3.9,74,2026-07-03 02:53:36.731074
8220DB000656,St Anne's Avenue,53.3764702007961,-6.17770919175966,weekday,evening,4.5,100.0,0.0,0.0,43,2026-07-03 02:53:36.731074
8220DB001770,Dollymount Ave,53.367086,-6.182751,weekday,pm_peak,,100.0,2.35,0.0,11,2026-07-03 02:53:36.731074
8220DB001764,Blackheath Ct,53.365893,-6.195577,weekday,pm_peak,1.0,32.4,6.72,1.84,34,2026-07-03 02:53:36.731074
8240DB000544,Bayside Coast,53.386164,-6.137815,weekday,pm_peak,,100.0,1.28,0.0,2,2026-07-03 02:53:36.731074
8240DB000943,Portmarnock Br,53.418248,-6.142176,weekday,evening,,100.0,0.0,0.0,23,2026-07-03 02:53:36.731074
8220DB000541,James Larkin Road,53.3818727077496,-6.15202806844666,weekday,evening,4.5,100.0,0.0,0.0,47,2026-07-03 02:53:36.731074
8240DB003599,Portmarnock Village,53.421646,-6.136475,weekday,evening,,100.0,0.0,0.0,23,2026-07-03 02:53:36.731074
8240DB000942,Saint Rita's House,53.415038,-6.138645,weekday,evening,,100.0,-0.02,0.0,23,2026-07-03 02:53:36.731074
8220DB001746,Oultan Road,53.360256,-6.202667,weekday,evening,4.5,100.0,0.0,0.0,46,2026-07-03 02:53:36.731074
8240DB000945,Saint Rita's House,53.41531,-6.138768,weekday,evening,,100.0,-0.02,0.0,24,2026-07-03 02:53:36.731074
8240DB000585,Sutton Cross,53.389353,-6.110838,weekday,pm_peak,,100.0,-1.5,0.0,7,2026-07-03 02:53:36.731074
8350DB002963,Herbert Road,53.1945356120342,-6.12715392386735,weekday,pm_peak,,100.0,0.0,0.0,12,2026-07-03 02:53:36.731074
8350DB004169,Bray Station,53.20417,-6.10091,weekday,evening,4.5,100.0,0.0,0.0,34,2026-07-03 02:53:36.731074
8350DB002962,Killarney Lane,53.1962101854254,-6.12161769133903,weekday,evening,,100.0,0.0,0.0,25,2026-07-03 02:53:36.731074
8350DB004201,Old Connaught Ave,53.211125,-6.117836,weekday,pm_peak,,100.0,3.97,0.0,11,2026-07-03 02:53:36.731074
8350DB008265,Victoria Avenue,53.200172,-6.09928,weekday,evening,,100.0,0.0,0.0,27,2026-07-03 02:53:36.731074
8350DB004170,Methodist Church,53.203483770052,-6.10697299154272,weekday,evening,4.5,100.0,0.32,0.66,38,2026-07-03 02:53:36.731074
8230DB007139,Rossberry Avenue,53.3392745036581,-6.43729457556755,weekday,pm_peak,,100.0,-0.02,0.0,11,2026-07-03 02:53:36.731074
8230DB004623,Balgaddy Road,53.3404183668915,-6.43063001958678,weekday,pm_peak,,100.0,0.0,0.0,11,2026-07-03 02:53:36.731074
8230DB008060,Liffey Valley SC,53.353924,-6.391947,weekday,evening,,100.0,0.0,0.0,15,2026-07-03 02:53:36.731074
8230DB007117,Castlegate Drive,53.33764,-6.460915,weekday,evening,,72.7,6.51,12.31,22,2026-07-03 02:53:36.731074
8260DB003954,Springfield Hotel,53.360535,-6.478691,weekday,evening,4.5,100.0,0.0,0.0,40,2026-07-03 02:53:36.731074
8230DB001963,Woodford Hill,53.3200381428208,-6.37854127295759,weekday,evening,,100.0,0.0,0.0,16,2026-07-03 02:53:36.731074
8230DB004551,Woodford Walk,53.3264970336262,-6.38292027025669,weekday,pm_peak,,100.0,-2.32,,1,2026-07-03 02:53:36.731074
8230DB007791,Red Cow Luas,53.317137,-6.370111,weekday,pm_peak,,100.0,-0.81,0.79,23,2026-07-03 02:53:36.731074
8260DB007767,Hewlett Packard,53.354264,-6.507997,weekday,pm_peak,,100.0,1.32,0.0,11,2026-07-03 02:53:36.731074
8260DB003899,Coneyburrow,53.344031,-6.508369,weekday,evening,,100.0,0.0,0.0,12,2026-07-03 02:53:36.731074
8260DB003938,Celbridge Park,53.3433430966764,-6.51229822444246,weekday,evening,,100.0,0.0,0.0,12,2026-07-03 02:53:36.731074
8260DB007083,Oakleigh,53.3353676155423,-6.55295264739761,weekday,evening,,100.0,0.0,0.0,14,2026-07-03 02:53:36.731074
8260DB003997,Riverdale,53.366949,-6.487628,weekday,evening,,100.0,0.24,0.52,17,2026-07-03 02:53:36.731074
8260DB007089,Willowbrook Lawns,53.3449,-6.549701,weekday,evening,,100.0,-0.02,0.0,23,2026-07-03 02:53:36.731074
8240DB001813,Blanchardstown Vlge,53.38568,-6.374108,weekday,evening,2.0,69.4,7.29,10.71,49,2026-07-03 02:53:36.731074
8240DB007247,Ballycoolin Road,53.398792397797,-6.35177289546409,weekday,pm_peak,,55.0,4.45,5.04,20,2026-07-03 02:53:36.731074
8220DB000132,Beneavin Park,53.3905207424932,-6.2827191236982,weekday,evening,4.5,100.0,0.0,0.0,70,2026-07-03 02:53:36.731074
8220DB004390,Killester Avenue,53.37189,-6.207662,weekday,evening,,100.0,3.02,0.0,5,2026-07-03 02:53:36.731074
8220DB000143,Willow Park Avenue,53.389876708405,-6.2692433699802,weekday,evening,4.5,100.0,-0.02,0.0,60,2026-07-03 02:53:36.731074
8220DB002475,Kenilworth Park,53.318866,-6.280089,weekday,pm_peak,,100.0,3.9,0.0,12,2026-07-03 02:53:36.731074
8220DB003361,Clogher Road,53.32624,-6.297252,weekday,pm_peak,,100.0,0.91,0.68,19,2026-07-03 02:53:36.731074
8220DB007932,Bremen Road,53.3372,-6.21887,weekday,evening,4.5,100.0,0.18,0.47,62,2026-07-03 02:53:36.731074
8220DB002793,Belgrave Square N,53.3232622422406,-6.26095213828522,weekday,evening,4.5,100.0,0.0,0.0,65,2026-07-03 02:53:36.731074
8250DB003134,Wyattville Road,53.2469068045075,-6.13603133529264,weekday,pm_peak,,50.0,8.46,6.3,22,2026-07-03 02:53:36.731074
8220DB007012,Memorial Gardens,53.342954,-6.315375,weekday,pm_peak,,0.0,14.06,1.12,22,2026-07-03 02:53:36.731074
8230DB002217,Esker Lane,53.359596,-6.427041,weekday,pm_peak,,100.0,-6.58,0.0,11,2026-07-03 02:53:36.731074
8250DB002860,Hilton Gardens,53.278167,-6.246138,weekday,pm_peak,,100.0,3.83,,1,2026-07-03 02:53:36.731074
8220DB000668,Marino Mart,53.364633,-6.229263,weekday,pm_peak,3.5,82.8,1.67,2.43,64,2026-07-03 02:53:36.731074
8220DB000248,Maryfield Drive,53.3855645601725,-6.21446963135785,weekday,pm_peak,1.0,46.3,7.01,7.25,41,2026-07-03 02:53:36.731074
8220DB000249,Artaine Castle,53.384934,-6.21615,weekday,pm_peak,,100.0,-0.02,0.0,19,2026-07-03 02:53:36.731074
8250DB004712,Llewellyn Park,53.28292,-6.263221,weekday,evening,4.5,100.0,-0.11,0.36,51,2026-07-03 02:53:36.731074
8250DB002853,Ballinteer Sch,53.280825,-6.260696,weekday,evening,4.5,94.1,0.77,3.11,51,2026-07-03 02:53:36.731074
8220DB000248,Maryfield Drive,53.3855645601725,-6.21446963135785,weekday,evening,3.5,87.5,1.1,2.87,56,2026-07-03 02:53:36.731074
8250DB002848,Broadford Ris,53.275356,-6.25546,weekday,evening,4.5,100.0,0.0,0.0,54,2026-07-03 02:53:36.731074
8250DB002847,Ballinteer Ct,53.276254,-6.24989,weekday,evening,4.5,100.0,-0.02,0.0,54,2026-07-03 02:53:36.731074
8230DB001144,Dargle Wood,53.282325,-6.315076,weekday,pm_peak,,100.0,0.23,0.59,23,2026-07-03 02:53:36.731074
8220DB001122,Rathdown Park,53.30722,-6.288375,weekday,pm_peak,,0.0,11.2,0.0,12,2026-07-03 02:53:36.731074
8220DB004495,Hawkins Street,53.346493,-6.257033,weekday,pm_peak,2.5,73.2,1.92,3.21,41,2026-07-03 02:53:36.731074
8220DB004563,Clarehall SC,53.401669,-6.180979,weekday,pm_peak,,100.0,-0.02,0.0,11,2026-07-03 02:53:36.731074
8220DB001273,Dunree Pk,53.391109,-6.195277,weekday,pm_peak,,100.0,-0.02,0.0,11,2026-07-03 02:53:36.731074
8230DB001151,Dargle Wood,53.28253,-6.314903,weekday,evening,,100.0,1.38,0.0,5,2026-07-03 02:53:36.731074
8220DB007236,Grange Ldg Ave,53.402847,-6.154668,weekday,evening,4.5,100.0,-0.02,0.0,66,2026-07-03 02:53:36.731074
8220DB001438,Oscar Square,53.336383,-6.279414,weekday,pm_peak,,100.0,-0.02,0.0,11,2026-07-03 02:53:36.731074
8240DB000222,Shanliss Road,53.389945,-6.249304,weekday,pm_peak,,0.0,10.07,0.0,11,2026-07-03 02:53:36.731074
8220DB001440,Donore Ave,53.33199,-6.283315,weekday,evening,4.5,100.0,0.0,0.0,30,2026-07-03 02:53:36.731074
8240DB000221,Shanowen Road,53.389721,-6.246892,weekday,pm_peak,,52.2,4.81,5.15,23,2026-07-03 02:53:36.731074
8220DB005148,Bangor Road,53.324946,-6.301057,weekday,evening,4.5,100.0,0.0,0.0,30,2026-07-03 02:53:36.731074
8220DB001401,Slane Rd,53.325397,-6.298652,weekday,evening,4.5,100.0,-0.02,0.0,30,2026-07-03 02:53:36.731074
8230DB006244,Alpine Heights,53.32273,-6.408207,weekday,pm_peak,,100.0,2.7,0.0,11,2026-07-03 02:53:36.731074
8230DB002135,Mill Ct Ave,53.321307,-6.414745,weekday,pm_peak,,100.0,4.03,0.0,11,2026-07-03 02:53:36.731074
8230DB004552,Pfizer,53.325086,-6.4396,weekday,pm_peak,,0.0,10.03,0.0,11,2026-07-03 02:53:36.731074
8220DB002313,Newmarket,53.338742,-6.278478,weekday,pm_peak,,0.0,11.45,2.61,24,2026-07-03 02:53:36.731074
8230DB002166,Castlegrange Grn,53.319964,-6.426712,weekday,evening,,100.0,-0.02,0.0,28,2026-07-03 02:53:36.731074
8230DB004552,Pfizer,53.325086,-6.4396,weekday,evening,4.5,100.0,-0.02,0.09,43,2026-07-03 02:53:36.731074
8220DB002383,St Patricks Cathdrl,53.339458,-6.272653,weekday,pm_peak,,50.0,5.45,0.96,22,2026-07-03 02:53:36.731074
8230DB004763,Mill Ct Ave,53.321216,-6.416744,weekday,pm_peak,,100.0,0.0,0.0,11,2026-07-03 02:53:36.731074
8230DB004763,Mill Ct Ave,53.321216,-6.416744,weekday,evening,,100.0,0.0,0.0,10,2026-07-03 02:53:36.731074
8220DB001079,Leicester Avenue,53.316655,-6.270752,weekday,pm_peak,,50.0,2.99,2.38,22,2026-07-03 02:53:36.731074
8230DB001113,Glendale Park,53.308992,-6.3152,weekday,evening,,100.0,-0.02,0.0,22,2026-07-03 02:53:36.731074
8220DB001081,Rathgar East,53.31265,-6.273495,weekday,pm_peak,1.0,36.1,6.42,6.47,36,2026-07-03 02:53:36.731074
8220DB002915,Zion Road,53.309408,-6.273701,weekday,pm_peak,,100.0,0.0,0.0,12,2026-07-03 02:53:36.731074
8230DB002924,Everton Hall,53.285828,-6.294045,weekday,evening,4.5,100.0,0.0,0.0,51,2026-07-03 02:53:36.731074
8230DB006279,Woodstown,53.27178,-6.322583,weekday,evening,4.5,100.0,-0.02,0.0,51,2026-07-03 02:53:36.731074
8230DB006298,Airpark Avenue,53.274507,-6.303748,weekday,evening,4.5,100.0,0.0,0.0,46,2026-07-03 02:53:36.731074
8230DB007063,Rosemount SC,53.290244,-6.298024,weekday,evening,4.5,100.0,0.0,0.0,46,2026-07-03 02:53:36.731074
8220DB001292,Harold's Cross Park,53.325634,-6.278124,weekday,evening,,0.0,6.17,0.0,2,2026-07-03 02:53:36.731074
8240DB001640,Omni Park SC,53.39235,-6.245987,weekday,evening,,56.3,27.6,28.52,16,2026-07-03 02:53:36.731074
8230DB001320,Rathfarnham Wood,53.294465,-6.280875,weekday,evening,4.5,100.0,-0.02,0.0,53,2026-07-03 02:53:36.731074
8240DB007347,Airport Zone 15,53.42812,-6.24204,weekday,evening,4.5,98.2,0.28,2.09,109,2026-07-03 02:53:36.731074
8220DB000812,Annamore Parade,53.358266,-6.284227,weekday,pm_peak,,100.0,-0.02,0.0,11,2026-07-03 02:53:36.731074
8240DB000219,Shantalla Ave,53.387828,-6.238536,weekday,pm_peak,,8.3,7.86,1.48,12,2026-07-03 02:53:36.731074
8250DB002978,Heather Lawn,53.276994,-6.2655,weekday,pm_peak,,100.0,1.02,,1,2026-07-03 02:53:36.731074
8220DB001340,Mount Tallant Ave,53.31647,-6.280996,weekday,evening,4.5,100.0,-0.02,0.0,54,2026-07-03 02:53:36.731074
8220DB000858,Clonskeagh,53.314095,-6.238302,weekday,evening,4.5,100.0,-0.02,0.0,45,2026-07-03 02:53:36.731074
8220DB000031,St Pappin's Road,53.3860332259144,-6.268858077275,weekday,pm_peak,,0.0,6.83,0.0,11,2026-07-03 02:53:36.731074
8220DB000033,Glasnevin Drive,53.3887179243058,-6.27177114122451,weekday,pm_peak,,100.0,-1.47,0.0,12,2026-07-03 02:53:36.731074
8220DB006122,St Pappin's Road,53.3863727059693,-6.27430166369762,weekday,evening,,100.0,-0.03,0.0,3,2026-07-03 02:53:36.731074
8220DB007191,Balbutcher Way,53.404613,-6.276388,weekday,evening,,100.0,-0.02,0.0,29,2026-07-03 02:53:36.731074
8220DB006253,Balbutcher Drive,53.403951,-6.281668,weekday,evening,,100.0,0.0,0.0,17,2026-07-03 02:53:36.731074
8220DB001614,Church St Upr,53.351257,-6.273753,weekday,pm_peak,,45.8,3.78,4.05,24,2026-07-03 02:53:36.731074
8220DB000197,Monck Place,53.358953,-6.273231,weekday,evening,4.5,98.4,0.12,1.03,61,2026-07-03 02:53:36.731074
8220DB007513,Phoenix Park,53.350896,-6.296795,weekday,pm_peak,,0.0,12.97,0.0,11,2026-07-03 02:53:36.731074
8250DB003027,Knocknashee,53.292197,-6.229032,weekday,pm_peak,,100.0,1.89,1.94,22,2026-07-03 02:53:36.731074
8250DB000449,Blackthorn Road,53.276323,-6.216927,weekday,pm_peak,,100.0,0.0,0.0,19,2026-07-03 02:53:36.731074
8250DB005045,St Raphaela's Road,53.283577,-6.209171,weekday,pm_peak,,100.0,2.92,0.0,8,2026-07-03 02:53:36.731074
8250DB003028,Goatstown Road,53.294707,-6.231629,weekday,evening,,100.0,0.46,1.09,23,2026-07-03 02:53:36.731074
8250DB003029,Goatstown Avenue,53.296304,-6.233273,weekday,evening,,100.0,0.08,0.36,20,2026-07-03 02:53:36.731074
8230DB004641,Russell Vw,53.282872,-6.401815,weekday,pm_peak,,50.0,9.06,5.01,22,2026-07-03 02:53:36.731074
8230DB004642,Jobstown Rd,53.280845,-6.403435,weekday,evening,,0.0,22.37,0.0,5,2026-07-03 02:53:36.731074
8220DB001218,Belcamp Lane,53.399706,-6.184281,weekday,evening,,100.0,2.37,0.0,2,2026-07-03 02:53:36.731074
8220DB001267,Ferrycarrig Pk,53.400855,-6.200249,weekday,pm_peak,,0.0,34.67,0.0,11,2026-07-03 02:53:36.731074
8220DB001269,Marigold Road,53.3984289595154,-6.19371931703884,weekday,pm_peak,,0.0,21.28,1.86,23,2026-07-03 02:53:36.731074
8230DB004643,Jobstown Rd,53.28082,-6.403631,weekday,pm_peak,,100.0,-0.02,0.0,23,2026-07-03 02:53:36.731074
8230DB002377,M Keane IE,53.316047,-6.334161,weekday,evening,,100.0,-0.05,0.0,4,2026-07-03 02:53:36.731074
8230DB006095,Glenshane,53.2867623972427,-6.39633029423498,weekday,pm_peak,,100.0,2.5,0.0,12,2026-07-03 02:53:36.731074
8220DB001266,Clonshaugh Drive,53.402055,-6.204725,weekday,evening,4.5,100.0,0.0,0.0,59,2026-07-03 02:53:36.731074
8220DB001788,Millbrook Rd,53.391614,-6.178806,weekday,evening,,100.0,-0.02,0.0,15,2026-07-03 02:53:36.731074
8220DB007569,Talbot St West,53.350451,-6.25597,weekday,pm_peak,2.5,69.9,3.98,2.13,73,2026-07-03 02:53:36.731074
8220DB001226,Ardmore Drive,53.388582,-6.21493,weekday,pm_peak,,100.0,0.0,0.0,11,2026-07-03 02:53:36.731074
8220DB001231,Castletimon Road,53.395489,-6.227843,weekday,pm_peak,2.0,67.6,4.57,6.73,34,2026-07-03 02:53:36.731074
8220DB001232,Castletimon Park,53.395286,-6.230483,weekday,evening,4.5,94.9,0.71,3.07,39,2026-07-03 02:53:36.731074
8220DB001251,Kilbarron Pk,53.393457,-6.222379,weekday,evening,4.5,100.0,-0.02,0.33,38,2026-07-03 02:53:36.731074
8220DB000664,Donnycarney,53.374719,-6.219508,weekday,evening,4.5,90.4,0.5,1.55,52,2026-07-03 02:53:36.731074
8240DB003766,Lusk House,53.522365,-6.153127,weekday,pm_peak,1.0,54.9,12.56,12.34,51,2026-07-03 02:53:36.731074
8240DB003797,Strand Street,53.57869,-6.106376,weekday,evening,,100.0,3.06,1.49,28,2026-07-03 02:53:36.731074
8240DB003793,Shenick Road,53.569907943875,-6.10124216180176,weekday,evening,,100.0,1.42,1.74,29,2026-07-03 02:53:36.731074
8240DB006077,Skerries Station,53.575902,-6.118839,weekday,evening,,100.0,2.45,1.63,17,2026-07-03 02:53:36.731074
8240DB003777,St Maur's Church,53.522618,-6.101593,weekday,evening,,70.6,9.33,9.32,17,2026-07-03 02:53:36.731074
8240DB003858,Bridetree,53.510972,-6.177944,weekday,evening,,100.0,0.0,0.0,12,2026-07-03 02:53:36.731074
8240DB003860,Hannas Avenue,53.507076,-6.185378,weekday,evening,,100.0,-0.02,0.0,12,2026-07-03 02:53:36.731074
8240DB006050,Lissenhall Green,53.481054,-6.202521,weekday,evening,,100.0,-0.02,0.0,12,2026-07-03 02:53:36.731074
8240DB003722,Leisure Centre,53.489793,-6.142154,weekday,pm_peak,,0.0,31.02,0.0,12,2026-07-03 02:53:36.731074
8240DB002959,Blanchardstown Ctr,53.3941479797141,-6.39214514432005,weekday,pm_peak,1.0,32.4,6.72,3.13,34,2026-07-03 02:53:36.731074
8220DB001654,St David's Terrace,53.35611,-6.29427,weekday,pm_peak,2.0,65.7,6.21,6.41,35,2026-07-03 02:53:36.731074
8240DB001671,Peck's Lane,53.371198,-6.356205,weekday,evening,,80.0,2.13,4.4,15,2026-07-03 02:53:36.731074
8240DB001676,Castleknock Avenue,53.37802,-6.375272,weekday,evening,4.5,100.0,0.0,0.0,39,2026-07-03 02:53:36.731074
8240DB004897,Luttrellstown Court,53.372157,-6.398354,weekday,pm_peak,,100.0,1.08,1.41,18,2026-07-03 02:53:36.731074
8240DB007218,The Courtyard,53.381638,-6.402974,weekday,pm_peak,,100.0,-0.02,0.0,11,2026-07-03 02:53:36.731074
8220DB001694,Old Race Course,53.371017,-6.339936,weekday,pm_peak,,100.0,0.0,0.0,12,2026-07-03 02:53:36.731074
8220DB001695,Ashtown Gate,53.37101,-6.334256,weekday,evening,4.5,100.0,0.0,0.0,30,2026-07-03 02:53:36.731074
8240DB007381,Damastown Ind Park,53.410348,-6.415978,weekday,evening,,100.0,0.0,0.0,23,2026-07-03 02:53:36.731074
8240DB001840,Blanchardstown Vlge,53.387961,-6.379283,weekday,evening,,95.2,1.2,2.07,21,2026-07-03 02:53:36.731074
8240DB004991,Damastown Green,53.411085,-6.420072,weekday,evening,,100.0,-1.15,,1,2026-07-03 02:53:36.731074
8220DB000274,O'Connell St Upper,53.3503490838222,-6.26072086862175,weekday,pm_peak,,100.0,3.3,0.0,11,2026-07-03 02:53:36.731074
8240DB004999,Warrenstown Green,53.400932,-6.385994,weekday,pm_peak,,100.0,1.22,0.0,9,2026-07-03 02:53:36.731074
8240DB001833,Blackcourt Road,53.399177,-6.38385,weekday,pm_peak,,100.0,1.41,1.78,21,2026-07-03 02:53:36.731074
8240DB004990,Damastown Road,53.411726,-6.422982,weekday,pm_peak,,100.0,1.15,0.47,8,2026-07-03 02:53:36.731074
8240DB001719,Damastown Close,53.408879,-6.408256,weekday,evening,,100.0,1.93,0.0,5,2026-07-03 02:53:36.731074
8350B102301,Kilmurry,53.1601281004167,-6.12890663349101,weekday,pm_peak,,0.0,5.55,0.0,11,2026-07-03 02:53:36.731074
8220B135001,Dublin Busáras,53.34981,-6.25203,weekday,evening,4.0,93.0,3.45,13.17,186,2026-07-03 02:53:36.731074
8350B1062701,Kilmurry,53.1549540236717,-6.1262606245497,weekday,pm_peak,,100.0,4.57,0.0,12,2026-07-03 02:53:36.731074
8300B1056301,Flurrybridge,54.099674,-6.360769,weekday,pm_peak,,100.0,-0.28,0.0,11,2026-07-03 02:53:36.731074
8300B1095401,Knockbridge,53.9715873579076,-6.48648595535527,weekday,pm_peak,,0.0,6.62,0.0,11,2026-07-03 02:53:36.731074
8300B1050901,Dundalk Bus Stn,54.00532,-6.40413,weekday,evening,4.0,94.2,5.85,23.07,154,2026-07-03 02:53:36.731074
8520B1311301,Bailieborough,53.9161414609509,-6.9695498193346,weekday,pm_peak,,0.0,5.67,0.0,11,2026-07-03 02:53:36.731074
8300B100381,Drogheda Stn,53.712555,-6.338864,weekday,pm_peak,,47.8,14.81,11.51,23,2026-07-03 02:53:36.731074
8300B014968,Fatima Drive,54.019178,-6.426272,weekday,evening,4.5,100.0,0.55,1.0,46,2026-07-03 02:53:36.731074
8300B1079901,Bay Estate,53.997479,-6.374382,weekday,evening,4.5,100.0,0.78,1.59,38,2026-07-03 02:53:36.731074
8300B1523401,Collon,53.7782752401846,-6.48648691590572,weekday,pm_peak,,0.0,5.98,,1,2026-07-03 02:53:36.731074
8350B106121,Arklow Methodist Ch,52.800957,-6.148013,weekday,pm_peak,,0.0,10.63,0.0,12,2026-07-03 02:53:36.731074
8370B2139701,Laurel Ridge,51.900828,-8.509743,weekday,pm_peak,,0.0,14.07,0.0,11,2026-07-03 02:53:36.731074
8370B2250301,University Hospl,51.882003,-8.510096,weekday,pm_peak,1.0,16.4,22.58,14.92,67,2026-07-03 02:53:36.731074
8370B2429601,Skehard Lw,51.889733,-8.41417,weekday,pm_peak,,100.0,-4.33,5.16,22,2026-07-03 02:53:36.731074
8370B2367301,Marian Park,51.8914247141308,-8.42123152507844,weekday,pm_peak,,100.0,-7.83,5.16,22,2026-07-03 02:53:36.731074
8370B2501701,Ardfoyle Place,51.8959883738155,-8.43193904770382,weekday,pm_peak,,100.0,-10.07,5.41,22,2026-07-03 02:53:36.731074
8370B2368201,Marina Park,51.894303,-8.454574,weekday,pm_peak,,100.0,-13.32,5.66,22,2026-07-03 02:53:36.731074
8300B139161,Killineer,53.749795,-6.38196,weekday,pm_peak,,100.0,1.0,0.0,12,2026-07-03 02:53:36.731074
8370B246731,Estuary Drive,51.888383,-8.393776,weekday,pm_peak,,100.0,-9.33,0.0,11,2026-07-03 02:53:36.731074
8370B2423901,Commons Road,51.915907,-8.474445,weekday,pm_peak,,0.0,54.35,0.0,11,2026-07-03 02:53:36.731074
8370B2424501,Willow Bank,51.916662,-8.491955,weekday,pm_peak,,0.0,52.3,0.0,12,2026-07-03 02:53:36.731074
8370B243881,St Patrick's Street,51.899425,-8.47106,weekday,evening,1.0,16.5,20.97,16.4,79,2026-07-03 02:53:36.731074
8370B2408901,Langford Row,51.89184,-8.468424,weekday,evening,,100.0,-5.18,0.0,3,2026-07-03 02:53:36.731074
8370B2406901,Daunt's Square,51.898202,-8.475581,weekday,evening,,11.1,19.79,17.19,9,2026-07-03 02:53:36.731074
8370B2424701,Parklands Dr,51.921829,-8.494497,weekday,evening,1.0,54.2,10.64,13.06,48,2026-07-03 02:53:36.731074
8370B2422301,Connolly Rd,51.88223,-8.475296,weekday,pm_peak,,0.0,23.61,7.84,22,2026-07-03 02:53:36.731074
8370B2528201,Infirmary Rd,51.892747,-8.466414,weekday,pm_peak,,0.0,53.2,38.79,28,2026-07-03 02:53:36.731074
8300B137181,Drogheda Stn,53.712163,-6.337834,weekday,evening,,100.0,3.22,0.0,4,2026-07-03 02:53:36.731074
8370B2417501,UCC Food Science,51.89171,-8.4946,weekday,pm_peak,,0.0,9.2,0.0,11,2026-07-03 02:53:36.731074
8370B2405201,Lancaster Quay,51.89622997391,-8.48528048091509,weekday,evening,,11.1,18.02,8.52,18,2026-07-03 02:53:36.731074
8240B1333201,Balrothery,53.587967571377,-6.18952684302739,weekday,pm_peak,1.0,0.0,18.92,5.01,36,2026-07-03 02:53:36.731074
8370B210231,MTU Bishopstown,51.884753,-8.532628,weekday,pm_peak,3.0,75.0,2.64,5.41,44,2026-07-03 02:53:36.731074
8370B2102001,MTU Bishopstown,51.884065,-8.531633,weekday,pm_peak,,100.0,-1.1,0.0,11,2026-07-03 02:53:36.731074
8370B2409101,South Terrace,51.8942642036178,-8.46679264778184,weekday,pm_peak,1.0,0.0,22.25,10.66,46,2026-07-03 02:53:36.731074
8370B2414601,Grand Parade,51.896525,-8.474735,weekday,evening,1.0,6.1,29.97,35.68,115,2026-07-03 02:53:36.731074
8370B2414801,Grand Parade,51.896687,-8.474591,weekday,pm_peak,1.0,0.0,31.64,21.7,33,2026-07-03 02:53:36.731074
8370B2412101,South Mall,51.8968631098904,-8.47104782941931,weekday,pm_peak,1.0,33.3,7.09,4.71,33,2026-07-03 02:53:36.731074
8370B2403201,Knights Court,51.9120334117608,-8.43940405051864,weekday,pm_peak,,0.0,42.83,37.88,16,2026-07-03 02:53:36.731074
8370B216531,MacCurtain Street,51.9013,-8.46673,weekday,pm_peak,1.0,0.0,43.69,35.49,32,2026-07-03 02:53:36.731074
8370B2406001,Bishopscourt Drive,51.880148,-8.514999,weekday,pm_peak,,0.0,22.88,0.0,11,2026-07-03 02:53:36.731074
8370B240491,St Patrick's Street,51.8993,-8.470884,weekday,evening,1.0,20.0,33.71,30.23,65,2026-07-03 02:53:36.731074
8370B216531,MacCurtain Street,51.9013,-8.46673,weekday,evening,,100.0,0.52,,1,2026-07-03 02:53:36.731074
8370B2405401,Western Terrace,51.894977,-8.492517,weekday,evening,,100.0,-12.68,,1,2026-07-03 02:53:36.731074
8370B2404401,Harrington Square,51.908611,-8.455402,weekday,evening,,0.0,104.63,39.01,11,2026-07-03 02:53:36.731074
8370B2404501,Windsor Terrace,51.9068949939843,-8.45738972738069,weekday,evening,,14.3,24.97,10.01,7,2026-07-03 02:53:36.731074
8310B1011901,Jamestown,53.504497,-6.451786,weekday,pm_peak,1.0,57.1,4.28,6.36,63,2026-07-03 02:53:36.731074
8370B2961401,Saint Luke's Cross,51.905068,-8.457923,weekday,evening,,0.0,57.25,36.7,6,2026-07-03 02:53:36.731074
8380B240011,Uam Var Av,51.876725,-8.53265,weekday,pm_peak,,0.0,29.42,0.0,10,2026-07-03 02:53:36.731074
8370B2400201,Scoil an Spioraid N,51.877982,-8.529048,weekday,pm_peak,1.0,0.0,30.77,11.35,43,2026-07-03 02:53:36.731074
8370B2400601,L Lynch Pk,51.884335,-8.507145,weekday,pm_peak,1.0,25.0,21.98,18.75,44,2026-07-03 02:53:36.731074
8240B1343201,Kilshane Cross,53.4288185664622,-6.33025016383034,weekday,pm_peak,,17.9,8.71,4.9,28,2026-07-03 02:53:36.731074
8310B1340701,Newtown Commons,53.468283,-6.359309,weekday,pm_peak,,31.3,9.16,4.93,16,2026-07-03 02:53:36.731074
8370B2899801,Dillon's Cross,51.909343,-8.45429,weekday,evening,,0.0,78.16,56.82,4,2026-07-03 02:53:36.731074
8370B240171,St Patrick's Street,51.899191,-8.471087,weekday,evening,1.0,12.1,34.85,30.11,58,2026-07-03 02:53:36.731074
8370B2401101,Castlewhite Aparts,51.894219,-8.497478,weekday,evening,,0.0,36.38,11.06,11,2026-07-03 02:53:36.731074
8220DB004543,Finglas Place,53.386249,-6.296993,weekday,evening,,100.0,0.06,0.13,15,2026-07-03 02:53:36.731074
8370B4289701,South Main St,51.897316,-8.476966,weekday,pm_peak,,40.7,25.48,36.34,27,2026-07-03 02:53:36.731074
8380B2433001,Whiteoaks,51.873277,-8.505307,weekday,pm_peak,,0.0,20.88,0.0,11,2026-07-03 02:53:36.731074
8370B244501,Trafalgar Hill,51.902999,-8.429667,weekday,pm_peak,,100.0,4.37,,1,2026-07-03 02:53:36.731074
8380B213501,Blarney,51.933277,-8.567231,weekday,pm_peak,,0.0,9.07,0.0,12,2026-07-03 02:53:36.731074
8370B213541,North Point,51.924748,-8.492857,weekday,pm_peak,,0.0,9.12,0.0,12,2026-07-03 02:53:36.731074
8380B213421,Coolflugh,51.921946,-8.617972,weekday,evening,1.0,55.6,7.31,9.44,54,2026-07-03 02:53:36.731074
8310B101061,Ninemile Stone,53.49726,-6.385126,weekday,pm_peak,,68.8,9.22,7.28,16,2026-07-03 02:53:36.731074
8310B1010801,Newtown Commons,53.468552,-6.359314,weekday,pm_peak,,0.0,21.99,1.37,18,2026-07-03 02:53:36.731074
8240B1011201,Kilshane,53.4215525654992,-6.32484740554746,weekday,pm_peak,,0.0,19.8,0.0,7,2026-07-03 02:53:36.731074
8380B245651,Strand Street,51.8701463095666,-8.33477548501298,weekday,evening,,87.5,-23.89,58.86,8,2026-07-03 02:53:36.731074
8370B2409101,South Terrace,51.8942642036178,-8.46679264778184,weekday,evening,,100.0,-1.26,1.5,21,2026-07-03 02:53:36.731074
8380B248641,Harbour Heights,51.87663,-8.35104,weekday,evening,,87.5,-26.12,61.98,8,2026-07-03 02:53:36.731074
8330B1312201,Rathowen,53.655565,-7.51974,weekday,evening,,0.0,17.77,,1,2026-07-03 02:53:36.731074
8380B2339601,Carrig na Curra,51.8283627904162,-8.39602295285664,weekday,pm_peak,1.0,33.3,27.94,20.7,33,2026-07-03 02:53:36.731074
8380B2314701,Carrigaline,51.813453,-8.392252,weekday,pm_peak,1.0,33.3,25.53,20.09,33,2026-07-03 02:53:36.731074
8380B245081,Yacht Club,51.803503,-8.307254,weekday,evening,,0.0,25.65,,1,2026-07-03 02:53:36.731074
8380B244301,Father Sexton Pk,51.888719,-8.583434,weekday,pm_peak,,0.0,46.96,2.23,22,2026-07-03 02:53:36.731074
8380B246671,Ovens,51.876683,-8.646921,weekday,pm_peak,1.0,0.0,53.53,7.73,33,2026-07-03 02:53:36.731074
8380B246741,Fernlea,51.8087761047801,-8.39034063235804,weekday,evening,,0.0,10.53,0.0,4,2026-07-03 02:53:36.731074
8380B245281,Glenwood,51.821111,-8.392493,weekday,pm_peak,,0.0,31.15,10.5,24,2026-07-03 02:53:36.731074
8380B232421,Muskerry North,51.887841,-8.597079,weekday,evening,,100.0,4.3,0.0,2,2026-07-03 02:53:36.731074
8380B2361301,Haulbowline Island,51.83912,-8.30198,weekday,evening,,0.0,39.45,5.74,12,2026-07-03 02:53:36.731074
8380B0236151,Haulbowline Island,51.83866,-8.3019,weekday,pm_peak,,100.0,-3.45,,1,2026-07-03 02:53:36.731074
8380B2361301,Haulbowline Island,51.83912,-8.30198,weekday,pm_peak,,100.0,-2.53,0.0,12,2026-07-03 02:53:36.731074
8380B236411,Ballynabearna,51.812499,-8.495142,weekday,evening,,100.0,0.48,1.26,2,2026-07-03 02:53:36.731074
8310B111691,Flemington,53.640665,-6.498179,weekday,pm_peak,,0.0,20.37,0.0,2,2026-07-03 02:53:36.731074
8380B2361101,Cloghduv,51.84651,-8.787724,weekday,evening,,0.0,32.0,0.0,7,2026-07-03 02:53:36.731074
8310B101031,Cushinstown,53.573234,-6.446935,weekday,evening,,0.0,6.24,0.78,4,2026-07-03 02:53:36.731074
8380B215171,Dunmanway South,51.718552,-9.114446,weekday,evening,,0.0,10.66,0.33,12,2026-07-03 02:53:36.731074
8380B2538001,Burgatia,51.57203,-9.006424,weekday,pm_peak,,0.0,37.93,0.0,12,2026-07-03 02:53:36.731074
8380B249701,Skibbereen,51.54842,-9.265,weekday,evening,,50.0,31.34,33.47,26,2026-07-03 02:53:36.731074
8380B0219231,Mallow Station,52.13897,-8.65416,weekday,pm_peak,,100.0,2.23,0.0,11,2026-07-03 02:53:36.731074
8380B235841,Ballydahin,52.127767,-8.645323,weekday,pm_peak,,100.0,0.88,0.0,11,2026-07-03 02:53:36.731074
8380B611431,Bweeng,52.047114,-8.728858,weekday,pm_peak,,100.0,3.28,0.0,12,2026-07-03 02:53:36.731074
8430B3554801,Clonmel Stn,52.360904,-7.699656,weekday,evening,,0.0,32.6,21.59,24,2026-07-03 02:53:36.731074
8430B1553901,Cahir,52.37469,-7.92597,weekday,evening,,54.2,4.97,2.6,24,2026-07-03 02:53:36.731074
8390B255661,Rathmore,52.0842022221109,-9.21790916632914,weekday,pm_peak,,0.0,29.92,0.0,11,2026-07-03 02:53:36.731074
8380B244811,Maryville,51.909148,-8.26536,weekday,evening,,0.0,6.63,,1,2026-07-03 02:53:36.731074
8380B2349601,IDA Carrigtwohill,51.908153,-8.275732,weekday,pm_peak,,0.0,10.76,1.88,23,2026-07-03 02:53:36.731074
8380B2399801,Saint Mary's Road,51.908095,-8.168473,weekday,evening,,0.0,19.18,,1,2026-07-03 02:53:36.731074
8390B2556101,Kenmare,51.87918,-9.58124,weekday,pm_peak,1.0,35.3,5.92,2.62,34,2026-07-03 02:53:36.731074
8380B215021,Seafield,51.672242,-9.475893,weekday,pm_peak,,100.0,2.13,0.0,11,2026-07-03 02:53:36.731074
8380B236321,Ballylickey,51.723114,-9.440622,weekday,pm_peak,,100.0,1.68,0.0,12,2026-07-03 02:53:36.731074
8390B350771,Castlemaine,52.1683444903381,-9.701476298994,weekday,pm_peak,,100.0,-3.7,0.0,12,2026-07-03 02:53:36.731074
8360B6067101,Clonard,52.6829410850099,-8.5973925179423,weekday,pm_peak,,100.0,0.27,0.0,11,2026-07-03 02:53:36.731074
8400B6067801,Island Vw Terrace,52.674111,-8.615682,weekday,pm_peak,,100.0,2.02,0.0,11,2026-07-03 02:53:36.731074
8400B6077601,Ballinacurra Gdns,52.647809,-8.638277,weekday,pm_peak,2.5,68.6,3.75,3.06,35,2026-07-03 02:53:36.731074
8400B6081001,Hyde Avenue,52.649849,-8.628272,weekday,evening,,100.0,2.15,0.0,3,2026-07-03 02:53:36.731074
8310B101981,The Old Mill,53.501944,-6.467104,weekday,evening,,100.0,-2.1,0.0,9,2026-07-03 02:53:36.731074
8310B1378201,Drakestown,53.767762,-6.725464,weekday,pm_peak,,100.0,0.73,0.0,11,2026-07-03 02:53:36.731074
8310B1378801,Nobber,53.8213914271153,-6.7471811043255,weekday,pm_peak,,100.0,-0.12,0.0,12,2026-07-03 02:53:36.731074
8400B356071,Limerick Colbert,52.659735,-8.625132,weekday,pm_peak,,100.0,1.44,0.42,23,2026-07-03 02:53:36.731074
8400B6090101,Pineview Gdns,52.682714,-8.654048,weekday,pm_peak,,0.0,5.37,,1,2026-07-03 02:53:36.731074
8400B6072701,Colbert Avenue,52.651353,-8.620933,weekday,pm_peak,,100.0,1.15,,1,2026-07-03 02:53:36.731074
8400B609901,Ros Mór,52.643197,-8.588059,weekday,evening,3.5,89.5,0.79,3.14,86,2026-07-03 02:53:36.731074
8410B607671,Elm Park,52.66755,-8.559438,weekday,pm_peak,,100.0,1.32,2.09,23,2026-07-03 02:53:36.731074
8400B6078401,O'Connell Street,52.6615926357784,-8.62900193360188,weekday,evening,4.5,100.0,1.46,1.02,35,2026-07-03 02:53:36.731074
8410B6076301,UL Student Ctr,52.672781,-8.570757,weekday,pm_peak,2.5,68.3,3.33,3.45,104,2026-07-03 02:53:36.731074
8400B6075701,Limerick One SP,52.657038,-8.597335,weekday,pm_peak,,100.0,1.16,1.92,28,2026-07-03 02:53:36.731074
8400B6085001,St Josephs Hospital,52.658936,-8.614626,weekday,pm_peak,,100.0,2.88,0.0,11,2026-07-03 02:53:36.731074
8400B6075101,Ballinacurra Hse,52.644671,-8.645176,weekday,pm_peak,,50.0,2.98,4.38,22,2026-07-03 02:53:36.731074
8410B609811,Sanctuary,52.624623,-8.649253,weekday,pm_peak,,100.0,3.48,,1,2026-07-03 02:53:36.731074
8220DB000055,Mountjoy Prison,53.360412,-6.26847,weekday,pm_peak,3.5,80.4,3.83,1.28,56,2026-07-03 02:53:36.731074
8240DB007167,Navan Rd Stn,53.375866,-6.344783,weekday,evening,,100.0,2.78,0.0,11,2026-07-03 02:53:36.731074
8310B189571,Navan,53.65329,-6.6877,weekday,evening,,26.7,6.62,1.57,15,2026-07-03 02:53:36.731074
8400B6081901,Upr Mallow Street,52.658469,-8.626444,weekday,pm_peak,4.5,100.0,-1.43,1.91,33,2026-07-03 02:53:36.731074
8410B609751,Fox Hollow,52.654428,-8.564975,weekday,pm_peak,,100.0,0.7,0.0,11,2026-07-03 02:53:36.731074
8410B609771,Caisleán Nua,52.66341,-8.56946,weekday,pm_peak,,0.0,7.35,0.0,12,2026-07-03 02:53:36.731074
8360B336581,Quin South,52.815475,-8.86242,weekday,pm_peak,,100.0,-1.08,0.0,12,2026-07-03 02:53:36.731074
8410B6085601,Tech Park West,52.673384,-8.547757,weekday,evening,,100.0,0.23,0.67,7,2026-07-03 02:53:36.731074
8310B105591,Grange Hall,53.5177739161998,-6.54573340386563,weekday,pm_peak,,0.0,13.1,6.38,22,2026-07-03 02:53:36.731074
8220DB001696,Ashtown Roundabout,53.371541,-6.329831,weekday,pm_peak,,0.0,20.93,0.0,12,2026-07-03 02:53:36.731074
8310B1017401,Kilmainham,53.714995,-6.827974,weekday,pm_peak,,0.0,39.9,0.0,12,2026-07-03 02:53:36.731074
8310B1017801,Blackwater RP,53.654802,-6.701007,weekday,evening,,0.0,40.68,0.02,7,2026-07-03 02:53:36.731074
8410B3345801,Ballyneety,52.5970806330923,-8.54842878414068,weekday,pm_peak,,100.0,4.3,0.0,11,2026-07-03 02:53:36.731074
8360B337751,Ballycasey,52.715346,-8.86262,weekday,pm_peak,4.5,100.0,-0.31,0.14,30,2026-07-03 02:53:36.731074
8360B609581,Shannon Airport,52.692286,-8.920791,weekday,evening,,90.0,6.1,18.79,20,2026-07-03 02:53:36.731074
8360B335351,Carrowgar,52.916307,-9.346271,weekday,pm_peak,,0.0,16.77,0.0,11,2026-07-03 02:53:36.731074
8360B6095501,Bunratty,52.698483,-8.81555,weekday,evening,,61.5,5.53,9.62,13,2026-07-03 02:53:36.731074
8360B3345501,Lackabranner,52.847065,-8.477288,weekday,pm_peak,,100.0,3.3,0.0,11,2026-07-03 02:53:36.731074
8360B346341,Doolin,53.01626,-9.37699,weekday,evening,,0.0,19.29,8.02,24,2026-07-03 02:53:36.731074
8360B6350001,Lifford Road,52.851052,-8.977997,weekday,evening,,0.0,11.32,0.41,8,2026-07-03 02:53:36.731074
8470B5560901,Oranmore North,53.272763,-8.928809,weekday,evening,,0.0,24.27,4.96,13,2026-07-03 02:53:36.731074
8470B555161,Tonroe Cross,53.241832,-8.891792,weekday,evening,,0.0,28.3,0.5,7,2026-07-03 02:53:36.731074
8360B3510001,Lisdoonvarna,53.0291739278564,-9.2900590780953,weekday,pm_peak,,0.0,9.07,0.0,12,2026-07-03 02:53:36.731074
8450B0351771,Kilmeadan Station,52.24611,-7.24644,weekday,pm_peak,,100.0,2.47,0.0,7,2026-07-03 02:53:36.731074
8440B3550501,Waterford Bus Stn,52.26323,-7.11548,weekday,pm_peak,1.0,0.0,23.57,12.34,49,2026-07-03 02:53:36.731074
8440B3550501,Waterford Bus Stn,52.26323,-7.11548,weekday,evening,2.0,74.1,11.95,22.41,85,2026-07-03 02:53:36.731074
8450B3314401,Tramore Bus Stn,52.162197,-7.148262,weekday,pm_peak,2.0,66.7,5.62,6.54,33,2026-07-03 02:53:36.731074
8440B353191,Kilbarry SC,52.246359,-7.119911,weekday,pm_peak,,50.0,12.25,9.62,22,2026-07-03 02:53:36.731074
8340B355471,New Ross,52.39417,-6.94642,weekday,pm_peak,,100.0,3.12,0.0,11,2026-07-03 02:53:36.731074
8450B353251,Whitfield Hospital,52.24034,-7.17419,weekday,evening,,0.0,30.11,7.06,16,2026-07-03 02:53:36.731074
8310B1012401,Ballybin,53.515935,-6.418616,weekday,pm_peak,,0.0,21.88,0.0,11,2026-07-03 02:53:36.731074
8460B5236301,Mervue,53.286186,-9.018425,weekday,pm_peak,,100.0,-1.58,0.0,11,2026-07-03 02:53:36.731074
8460B5233201,Rahylin Glebe,53.28281,-9.01028,weekday,pm_peak,,100.0,3.15,0.72,22,2026-07-03 02:53:36.731074
8460B522301,Pearse Stadium,53.264351,-9.083157,weekday,pm_peak,,100.0,0.0,0.0,22,2026-07-03 02:53:36.731074
8460B5222101,Salthill Prom,53.258503,-9.078948,weekday,pm_peak,,100.0,0.05,0.01,12,2026-07-03 02:53:36.731074
8460B5228001,Merlin Gate,53.276394,-9.003078,weekday,pm_peak,,0.0,9.58,0.0,11,2026-07-03 02:53:36.731074
8460B5231601,IS Cnc na Cathrach,53.26337,-9.10468,weekday,pm_peak,,0.0,20.25,0.0,11,2026-07-03 02:53:36.731074
8470B556161,Oranmore North,53.272747,-8.928538,weekday,pm_peak,1.0,32.4,15.6,7.57,34,2026-07-03 02:53:36.731074
8460B5255401,Bothar Le Cheile,53.2763,-9.07779,weekday,pm_peak,,7.7,9.42,2.83,13,2026-07-03 02:53:36.731074
8460B5255401,Bothar Le Cheile,53.2763,-9.07779,weekday,evening,4.5,100.0,0.97,1.54,47,2026-07-03 02:53:36.731074
8460B5232301,College Road,53.2766679169823,-9.04139459613488,weekday,evening,,82.4,1.13,2.95,17,2026-07-03 02:53:36.731074
8310B1030501,Lackanash,53.556577,-6.781779,weekday,pm_peak,,100.0,4.1,0.0,11,2026-07-03 02:53:36.731074
8460B5258001,Pearse Ave,53.285645,-9.022866,weekday,pm_peak,,0.0,5.47,0.0,11,2026-07-03 02:53:36.731074
8460B5259001,Riverside IE,53.288686,-9.023524,weekday,pm_peak,,100.0,2.6,0.0,11,2026-07-03 02:53:36.731074
8460B5256501,Lw Newcastle,53.278883,-9.063356,weekday,evening,,100.0,2.38,,1,2026-07-03 02:53:36.731074
8460B5237301,Prc M Thír Oileáin,53.284434,-9.046776,weekday,pm_peak,,0.0,34.95,0.0,11,2026-07-03 02:53:36.731074
8460B5237901,Scoil S Phroinsias,53.290115,-9.042232,weekday,pm_peak,,0.0,38.13,0.0,11,2026-07-03 02:53:36.731074
8520B1014601,Maghera Cross Roads,53.801236,-7.035066,weekday,pm_peak,,100.0,-1.28,0.0,11,2026-07-03 02:53:36.731074
8520B1015301,Lavey,53.9653362297651,-7.23022435671639,weekday,pm_peak,,100.0,-10.45,0.0,11,2026-07-03 02:53:36.731074
8310B1014201,Kells Business Pk,53.736489,-6.901754,weekday,pm_peak,,52.2,28.85,29.48,23,2026-07-03 02:53:36.731074
8520B1014701,Lough Ramor,53.8319357473693,-7.07057749844067,weekday,evening,,100.0,3.15,,1,2026-07-03 02:53:36.731074
8460B5232101,Bóthar B Uí Eithir,53.27627,-9.04664,weekday,pm_peak,4.5,100.0,3.36,1.04,34,2026-07-03 02:53:36.731074
8460B5232401,Dexcom Stadium,53.279225,-9.037783,weekday,pm_peak,,100.0,3.4,,1,2026-07-03 02:53:36.731074
8470B5337701,An Cillín,53.313479,-8.98648,weekday,pm_peak,,0.0,7.97,0.0,5,2026-07-03 02:53:36.731074
8470B535131,Doon,53.37905,-9.24977,weekday,evening,,100.0,-3.67,0.0,9,2026-07-03 02:53:36.731074
8460B5550401,Galway Ceannt,53.27395,-9.0474,weekday,evening,2.0,69.2,6.71,13.8,65,2026-07-03 02:53:36.731074
8490B141761,Swinford,53.943752,-8.950111,weekday,pm_peak,,100.0,1.33,0.0,11,2026-07-03 02:53:36.731074
8490B520441,Glencorrib,53.5109837712322,-9.17248049896738,weekday,evening,,100.0,0.92,0.0,7,2026-07-03 02:53:36.731074
8520B1358601,Cavan Bus Stn,53.99036,-7.36358,weekday,pm_peak,,100.0,-7.07,7.22,24,2026-07-03 02:53:36.731074
8470B0533561,Leitir Mealláin,53.242239,-9.731691,weekday,pm_peak,,0.0,5.37,0.0,11,2026-07-03 02:53:36.731074
8460B522311,Spanish Arch,53.270347,-9.054014,weekday,pm_peak,,0.0,9.82,0.63,22,2026-07-03 02:53:36.731074
8470B532021,Coosaun Cross,53.344637,-8.777548,weekday,pm_peak,,0.0,11.55,0.0,11,2026-07-03 02:53:36.731074
8500B555611,Roscommon Hospital,53.625646,-8.176476,weekday,pm_peak,,100.0,0.58,0.0,11,2026-07-03 02:53:36.731074
8490B582211,An Fód Dubh,54.100223,-10.06795,weekday,evening,,100.0,0.0,0.0,12,2026-07-03 02:53:36.731074
8510B5586101,Skreen,54.2436306117063,-8.70260786420022,weekday,pm_peak,,0.0,7.53,0.0,11,2026-07-03 02:53:36.731074
8510B558211,Beltra,54.213057,-8.607527,weekday,evening,,0.0,6.98,0.0,2,2026-07-03 02:53:36.731074
8530B140811,Ballyshannon,54.50094,-8.18971,weekday,evening,,75.0,2.4,1.87,12,2026-07-03 02:53:36.731074
8530B0142191,Ballybofey,54.799193,-7.777662,weekday,pm_peak,,91.7,2.73,10.14,12,2026-07-03 02:53:36.731074
8530B140121,Killygordon,54.7968783262443,-7.68543816377576,weekday,pm_peak,,100.0,3.52,0.0,11,2026-07-03 02:53:36.731074
8530B141331,Castlefin,54.8015428406202,-7.59230359141697,weekday,pm_peak,,100.0,3.52,,1,2026-07-03 02:53:36.731074
8380B6310601,Mallow,52.135462,-8.644629,weekday,evening,,81.8,5.22,9.53,11,2026-07-03 02:53:36.731074
8430B331961,Dunbane,52.349712,-7.397704,weekday,pm_peak,,0.0,26.38,0.0,11,2026-07-03 02:53:36.731074
8270B331981,Piltown,52.351168,-7.331918,weekday,pm_peak,,0.0,21.25,0.0,11,2026-07-03 02:53:36.731074
8430B331941,S Treacy Pk,52.3484,-7.423288,weekday,pm_peak,,0.0,22.05,0.0,11,2026-07-03 02:53:36.731074
8530B1324801,Ballyshannon,54.500974,-8.189829,weekday,pm_peak,,0.0,38.6,0.0,11,2026-07-03 02:53:36.731074
8410B1554901,Dalys Cross,52.710064,-8.490324,weekday,pm_peak,,100.0,-0.48,0.0,11,2026-07-03 02:53:36.731074
8330B455541,Retreat Park,53.4221733833633,-7.9177806558671,weekday,pm_peak,,100.0,4.3,0.0,11,2026-07-03 02:53:36.731074
8210B111621,St Patrick's Avenue,52.837124,-6.91467,weekday,pm_peak,,0.0,14.88,0.0,11,2026-07-03 02:53:36.731074
8310B1503501,Tower Cross,53.722161,-6.257201,weekday,pm_peak,,100.0,-0.17,,1,2026-07-03 02:53:36.731074
8310B1087001,Bettystown,53.698388,-6.24422,weekday,pm_peak,,50.0,5.5,6.91,24,2026-07-03 02:53:36.731074
8310B111581,Inse Bay,53.685162,-6.240804,weekday,pm_peak,,0.0,11.25,0.0,12,2026-07-03 02:53:36.731074
8300B139151,Melifont Pk,53.723916,-6.363132,weekday,pm_peak,,100.0,-2.13,0.76,12,2026-07-03 02:53:36.731074
8300B103591,Drogheda Bus,53.712612,-6.353847,weekday,evening,1.0,25.0,81.09,47.52,32,2026-07-03 02:53:36.731074
8300B103661,Termon Aby,53.72896,-6.33038,weekday,pm_peak,,100.0,-3.37,0.0,11,2026-07-03 02:53:36.731074
8300B136651,The Chesters,53.727102,-6.332183,weekday,pm_peak,,100.0,-1.33,,1,2026-07-03 02:53:36.731074
8310B189001,Gainstown,53.623351,-6.706312,weekday,evening,4.5,100.0,0.06,0.34,36,2026-07-03 02:53:36.731074
8310B136621,Limekilnhill,53.643986,-6.672769,weekday,pm_peak,,0.0,12.55,5.02,23,2026-07-03 02:53:36.731074
8310B0189721,Academy Street,53.65,-6.68098,weekday,pm_peak,1.0,0.0,12.12,5.29,34,2026-07-03 02:53:36.731074
8260B0103551,Pinewood Court,53.405,-6.67674,weekday,pm_peak,,100.0,-0.4,0.0,12,2026-07-03 02:53:36.731074
8230B1034501,Liffey Valley SC,53.356177,-6.391667,weekday,pm_peak,,0.0,5.08,0.0,12,2026-07-03 02:53:36.731074
8330B1033201,Ardmore Rd,53.522795,-7.308501,weekday,pm_peak,,100.0,-2.07,0.0,6,2026-07-03 02:53:36.731074
8310B136631,Limekilnhill,53.64334,-6.672048,weekday,pm_peak,1.0,0.0,19.02,7.8,40,2026-07-03 02:53:36.731074
8220B135411,Wilton Terrace,53.333421,-6.249085,weekday,evening,2.0,63.9,7.52,8.56,36,2026-07-03 02:53:36.731074
8510B554971,Doorly Park,54.2675405408101,-8.45596867699791,weekday,pm_peak,1.0,32.4,21.72,14.15,34,2026-07-03 02:53:36.731074
8510B5209701,Cairns Road,54.2552292580485,-8.46562389721334,weekday,pm_peak,2.0,68.6,7.01,7.01,35,2026-07-03 02:53:36.731074
8260B134061,Millerstown,53.395692,-6.656675,weekday,evening,,100.0,2.27,0.54,9,2026-07-03 02:53:36.731074
8510B5593101,Rosses Point West,54.306265,-8.566024,weekday,pm_peak,,0.0,9.65,0.0,11,2026-07-03 02:53:36.731074
8260B0103551,Pinewood Court,53.405,-6.67674,weekday,evening,,0.0,7.35,0.0,12,2026-07-03 02:53:36.731074
8390B6356501,Listowel,52.444715,-9.485543,weekday,pm_peak,,100.0,-2.8,0.0,11,2026-07-03 02:53:36.731074
8220DB002916,Bushy Park Road,53.307637,-6.274943,weekday,pm_peak,,0.0,6.33,0.0,11,2026-07-03 02:53:36.731074
8490B5454201,Murrisk,53.7796515258603,-9.63852048558377,weekday,evening,,100.0,-4.32,0.29,11,2026-07-03 02:53:36.731074
8220GA00279,Milltown,53.30967,-6.251616,weekday,evening,4.0,96.1,-23.9,22.5,76,2026-07-03 02:53:36.731074
8250GA00294,Sandyford,53.27767443,-6.204574391,sunday,evening,4.0,100.0,-20.75,12.03,37,2026-07-03 02:53:36.731074
8250GA00333,Cherrywood,53.24538769,-6.145822549,weekday,evening,4.0,100.0,-31.66,6.46,40,2026-07-03 02:53:36.731074
8220GA00470,O'Connell Upr.,53.351612,-6.261151,weekday,evening,4.0,92.9,-12.93,12.36,70,2026-07-03 02:53:36.731074
8220GA00440,Harcourt,53.333631,-6.26283,sunday,evening,2.5,63.8,5.58,4.88,47,2026-07-03 02:53:36.731074
8250GA00281,Windy Arbour,53.301757,-6.250841,weekday,evening,,66.7,-0.52,7.79,24,2026-07-03 02:53:36.731074
8220GA00478,Dominick,53.351245,-6.265573,weekday,evening,,100.0,-0.5,3.82,22,2026-07-03 02:53:36.731074
8220GA00083,Beechwood,53.320929,-6.25475,sunday,evening,2.5,73.9,4.9,4.85,46,2026-07-03 02:53:36.731074
8250GA00295,Kilmacud,53.28291052,-6.224107001,weekday,evening,3.0,76.3,-19.49,23.3,38,2026-07-03 02:53:36.731074
8250GA00325,Carrickmines,53.254334,-6.171624,weekday,evening,,100.0,-12.0,0.85,19,2026-07-03 02:53:36.731074
8220GA00443,Westmoreland,53.34637,-6.259086,weekday,evening,,100.0,-44.25,16.41,23,2026-07-03 02:53:36.731074
8250GA00336,Brides Glen,53.24187177,-6.142842986,sunday,evening,,100.0,1.69,0.22,12,2026-07-03 02:53:36.731074
8250GA00291,Balally,53.286023,-6.236791,weekday,evening,,28.6,-2.01,20.69,14,2026-07-03 02:53:36.731074
8250GA00286,Dundrum,53.292375,-6.245234,weekday,evening,,68.0,-0.63,8.02,25,2026-07-03 02:53:36.731074
8250GA00316,The Gallops,53.261063,-6.205947,weekday,evening,,100.0,-51.47,4.32,22,2026-07-03 02:53:36.731074
8230GA00415,Fortunestown,53.284178,-6.424724,weekday,evening,1.5,46.5,5.57,1.51,71,2026-07-03 02:53:36.731074
8220GA00369,Goldenbridge,53.335879,-6.313299,weekday,evening,1.0,57.1,-0.06,6.92,98,2026-07-03 02:53:36.731074
8220GA00363,Blackhorse,53.334196,-6.327515,weekday,evening,2.0,61.3,-2.08,13.77,80,2026-07-03 02:53:36.731074
8220GA00420,Busáras,53.350045,-6.251598,weekday,pm_peak,,100.0,1.03,,1,2026-07-03 02:53:36.731074
8220GA00398,Smithfield,53.3471135,-6.278080805,weekday,evening,4.5,100.0,-1.35,4.89,62,2026-07-03 02:53:36.731074
8230GA00338,Cookstown,53.293311,-6.384038,sunday,evening,4.0,100.0,-9.91,15.85,50,2026-07-03 02:53:36.731074
8220GA00436,The Point,53.34827635,-6.22918668,weekday,evening,,95.2,-1.13,6.17,21,2026-07-03 02:53:36.731074
8220GA00387,Heuston,53.34668236,-6.291856547,sunday,evening,4.0,100.0,-18.66,11.13,38,2026-07-03 02:53:36.731074
8220GA00431,Mayor Square,53.34920357,-6.243268029,sunday,evening,4.0,100.0,-17.7,10.17,47,2026-07-03 02:53:36.731074
8220GA00434,Spencer Dock,53.34882534,-6.237125012,sunday,evening,4.0,100.0,-17.2,8.76,47,2026-07-03 02:53:36.731074
8230GA00339,Cookstown,53.29325763,-6.384116138,sunday,evening,,88.2,3.6,1.33,17,2026-07-03 02:53:36.731074
8220GA00364,Blackhorse,53.33429937,-6.327563122,sunday,evening,,100.0,-39.43,3.78,25,2026-07-03 02:53:36.731074
8230GA00351,Kingswood,53.30369079,-6.365506429,weekday,evening,,16.7,5.27,1.22,6,2026-07-03 02:53:36.731074
8220GA00062,Harcourt,53.33365091,-6.262691737,sunday,evening,,20.0,6.13,1.12,10,2026-07-03 02:53:36.731074
8220GA00276,Cowper,53.31640107,-6.25335115,weekday,evening,4.5,96.4,0.3,1.55,55,2026-07-03 02:53:36.731074
8250GA00298,Stillorgan,53.279503,-6.210316,weekday,evening,4.0,100.0,-37.77,19.23,55,2026-07-03 02:53:36.731074
8220GA00471,Parnell,53.35310526,-6.26050348,weekday,pm_peak,,100.0,-0.75,,1,2026-07-03 02:53:36.731074
8220GA00441,Dawson,53.342162,-6.257852,weekday,evening,,100.0,-0.46,0.72,29,2026-07-03 02:53:36.731074
8350DB004282,Mill Road,53.139510182348,-6.06105674847875,weekday,evening,,100.0,1.63,0.81,3,2026-07-03 02:53:36.731074
8350DB004294,Church Lane,53.1463915940886,-6.07799962874195,weekday,pm_peak,,100.0,3.78,,1,2026-07-03 02:53:36.731074
8350DB004297,Redford,53.1556168761264,-6.08264185061065,weekday,evening,,100.0,2.1,0.63,6,2026-07-03 02:53:36.731074
8350DB003045,Church Road,53.197431,-6.109006,weekday,evening,,100.0,2.91,0.46,4,2026-07-03 02:53:36.731074
8350DB004654,Springfield Heights,53.0884641635833,-6.10914411975304,weekday,pm_peak,,56.0,3.15,2.95,25,2026-07-03 02:53:36.731074
8350DB004291,Bellevue Road,53.145138,-6.068876,weekday,pm_peak,,100.0,0.73,0.16,2,2026-07-03 02:53:36.731074
8350DB004229,Carrig Villas,53.132522,-6.075734,weekday,evening,,100.0,0.63,1.05,2,2026-07-03 02:53:36.731074
8350DB004235,Delgany Golf Club,53.130388139816,-6.10129581320631,weekday,evening,,100.0,1.34,0.39,5,2026-07-03 02:53:36.731074
8350DB004132,Bray Main Street,53.202301,-6.110004,weekday,pm_peak,,73.9,7.98,13.55,23,2026-07-03 02:53:36.731074
8350DB004108,Golf Course,53.1918778643104,-6.20081336966608,weekday,evening,,100.0,0.2,0.76,21,2026-07-03 02:53:36.731074
8350DB005135,Kilruddery Cottages,53.176792,-6.095417,weekday,evening,,100.0,3.92,0.16,5,2026-07-03 02:53:36.731074
8350DB005135,Kilruddery Cottages,53.176792,-6.095417,weekday,pm_peak,,100.0,3.63,0.21,2,2026-07-03 02:53:36.731074
8350DB004264,Woodstock Park,53.0943244377889,-6.06771845241644,weekday,pm_peak,,100.0,-0.63,0.11,2,2026-07-03 02:53:36.731074
8350DB004260,Sea Road,53.070678,-6.063464,weekday,evening,,100.0,0.0,0.0,24,2026-07-03 02:53:36.731074
8220DB001742,Saint Lawrence Road,53.362126,-6.216427,weekday,evening,3.0,86.8,7.31,18.91,53,2026-07-03 02:53:36.731074
8220DB004473,Artane Castle SC,53.383914,-6.214704,weekday,evening,,0.0,38.33,0.0,7,2026-07-03 02:53:36.731074
8220DB000114,Ballymun Road,53.3913333220544,-6.26371122925237,weekday,evening,4.0,90.4,1.65,5.14,73,2026-07-03 02:53:36.731074
8350DB004226,St Vincent's Road,53.1383406316778,-6.0637551809903,weekday,evening,,83.3,2.0,3.61,6,2026-07-03 02:53:36.731074
